[{"sector":"Ferroviaire","name":"ALSTOM","street":"rue Jacquard","location":"Parc d'Activités Lavoisier","postCode":59494,"city":"PETITE-FORET","phone":"03 27 14 18 00","website":"www.transport.alstom.com","numbers":1100,"description":"Alstom est un acteur historique du développement du Valenciennois, grâce à son site situé à Petite-Forêt. ll est par sa taille et son nombre de salariés, l’un des plus importants des 12 sites d’Alstom en France. Le site est spécialisé dans la conception, le développement, la fabrication et la validation des matériels ferroviaires : métros, tram-trains et trains à deux niveaux en version régionale et sub-urbaine.","MÉTIERS":"Constructeur","image":"RER_NG_X'Trapolis Cityduplex_AlstomDesign&Styling.jpg","logo":"alstom-logo-png-5.png","type":"Entreprise","latitude":50.382017,"longitude":3.476516},{"sector":"Automobile, Ferroviaire, Aéronautique","name":"ALTEN","street":"2 rue Horus Immeuble Les Gradins","location":"Parc Scientifique de le Haute Borne","postCode":59650,"city":"VILLENEUVE D'ASCQ","phone":"03 20 30 25 25","website":"www.alten.fr","numbers":300,"description":"Alten, leader européen de l’Ingénierie et du Conseil en Technologies, accompagne la stratégie de développement de ses clients dans les domaines de l’innovation, de la R&D et des systèmes d’information technologiques. Ses 21300 consultants ingénieurs de haut niveau réalisent des projets de conception et d’études pour les Directions Techniques et les Directions des Systèmes d’Information des grands comptes industriels, télécoms et tertiaires. \r\n\r\n","MÉTIERS":"ingénierie\r\ninformatique","image":"shutterstock_163822697.jpg","type":"Entreprise","latitude":50.608265,"longitude":3.16046},{"sector":"Automobile, Ferroviaire, Aéronautique","name":"ALTRAN","street":"360 rue Marc Lefrancq","location":"Les Ateliers Numériques","postCode":59300,"city":"VALENCIENNES","phone":"03 27 31 45 68","website":"www.altran.com","numbers":350,"description":"Altran Technologies est une société de conseils en Ingénierie pour l’ensemble des secteurs industriels. L'agence de Valenciennes travaille exclusivement  dans le domaine ferroviaire (mécanique, l’électrique, la conformité aux exigences, la logistique, la qualité, les méthodes....)\r\n","MÉTIERS":"conseil\r\ningénierie\r\nmécanique\r\nélectricité","image":"Image1.jpg","logo":"RVB_ALTRAN_HD.png","type":"Entreprise","latitude":50.366328,"longitude":3.529479},{"sector":"Automobile ","name":"ADES METROLOGY","street":"257 ter rue du Pont de Pierre","location":"ZI de la Petite Savate","postCode":59600,"city":"MAUBEUGE","phone":"03 27 39 70 38","website":"www.ades-metrology.com","numbers":5,"description":"ADES aide ses clients à répondre aux exigences normatives au juste nécessaire en garantissant une plus grande fiabilité. La métrologie doit pouvoir apporter un gain de productivité et non un coût supplémentaire.","MÉTIERS":"Métrologie","logo":"ADES_Logo ADES - rev 02.jpg","type":"Entreprise","latitude":50.284784,"longitude":3.962909},{"sector":"Automobile ","name":"ABYLSEN SIGMA NORD","street":"629 avenue de la République","postCode":59000,"city":"LILLE","phone":"03 28 36 31 79","website":"www.abylsen.com","numbers":172,"description":"Abylsen a pour vocation de concourir à l’innovation et à la performance des entreprises en apportant l’expertise en ingénierie de technologies dont elles ont besoin dans leurs projets de transformation.","MÉTIERS":"Etudes, ingénierie, essais\r\nPrestation de service","logo":"Abylsen logo_CMJN_Baseline bleueOK.eps","type":"Entreprise","latitude":50.640852,"longitude":3.018214},{"sector":"Automobile ","name":"AGRATI","street":"2-4 rue Dervaux","postCode":59690,"city":"VIEUX-CONDÉ","phone":"03 27 19 15 00","website":"www.agrati.com","numbers":290,"description":"Fournisseur majeur de fixations techniques pour les constructeurs automobiles, la société est présente principalement dans le secteur des constructeurs et équipementiers automobiles mais fournit également l’industrie, l’électroménager et la distribution.","MÉTIERS":"Fixation","logo":"AGRATI_Logo_AGRATI_FRANCE.jpg","type":"Entreprise","latitude":50.457245,"longitude":3.571979},{"sector":"Automobile","name":"A2MAC1","street":"25 Chaussée de Hary","postCode":"02240","city":"HARY","phone":"03 23 98 49 66","website":"www.a2mac1.com","numbers":156,"description":"Leader mondial sur son secteur, la société A2Mac1 est la référence pour le benchmarking automobile. Elle compte parmi ses clients la plupart des constructeurs automobiles mondiaux ainsi que plus de 150 équipementiers. ","MÉTIERS":"3D\r\ninformatique","type":"Entreprise","latitude":49.805223,"longitude":3.921014},{"sector":"Automobile","name":"AD-TECH INGENIERIE","street":"419 Rue des Bourreliers","postCode":"59320","city":"HALLENES-LEZ-HAUBOURDIN","phone":"03 59 09 00 80","website":"www.ad-tech-ingenierie.fr","numbers":27,"description":"Ad-Tech-Ingenierie est un équipementier pour l'industrie, fabricant de machines spéciales et de moyens industriels clé en main. La société met aussi à disposition ses collaborateurs en détachement chez ses clients.","type":"Entreprise","latitude":50.607547,"longitude":2.958529},{"sector":"Automobile","name":"ADES METROLOGY","street":"257 ter rue du Pont de Pierre ","location":"ZI de la Petite Savate","postCode":"59600","city":"MAUBEUGE","phone":"03 23 98 49 66","website":"www.ades-metrology.com","numbers":5,"description":"ADES metrology conçoit et met en oeuvre les processus de mesure répondant aux besoins de métrologie de l'ensemble des secteurs industriels.","type":"Entreprise","latitude":50.284784,"longitude":3.962909},{"sector":"Automobile","name":"AGC AUTOMOTIVE France SAS","street":"16 Rue Denfert Rochereau","postCode":"59580","city":"ANICHE","phone":"03 27 93 62 62","website":"www.agc-glass.eu","numbers":260,"description":"Branche verrière européenne d’AGC (Japon), leader mondial en verre plat, AGC Glass Europe contribue à révéler et exploiter les potentialités infinies du verre plat. Au profit de la construction et de l’automobile mais aussi des transports, du solaire et du secteur high tech.","type":"Entreprise","latitude":50.325745,"longitude":3.246199},{"sector":"Automobile","name":"AGLAFORM","street":"4 Avenue du Maréchal Foch","postCode":"62390","city":"AUXI-LE-CHÂTEAU","phone":"03 21 04 00 11","numbers":170,"description":"AglaForm est une société spécialisée dans la fabrication de poulies pour moteurs automobiles.","type":"Entreprise","latitude":50.228038,"longitude":2.124688},{"sector":"Automobile","name":"AKEBONO EUROPE","street":"244 allée d’Espagne","location":"Artoipole","postCode":"62118","city":"MONCHY-LE-PREUX","phone":"03 21 24 48 00","website":"www.akebono-brake.com/","numbers":150,"description":"AKEBONO est le spécialiste mondial de la friction, accompagne les constructeurs automobiles installés en Europe en leur proposant des plaquettes de frein hautes performances, conçues dans notre Centre de Recherches Européen en région parisienne.","MÉTIERS":"fabrication de plaquettes\r\nde frein","type":"Entreprise","latitude":50.272226,"longitude":2.856564},{"sector":"Aéronautique, Automobile, Ferroviaire","name":"AKKA TECHNOLOGIE","street":"6 avenue Louis Neel","postCode":"59260","city":"LEZENNES","phone":"03 20 86 22 88","website":"www.akka-technologies.com/france/?lang=fr","numbers":75,"description":"Akka Technologies est un groupe d'ingénierie et de conseil en technologies. Le groupe est positionné sur l'ensemble des secteurs d'activités industriels (notamment aéronautique, automobile et ferroviaire). Les sociétés du groupe disposent de plus de cinquante implantations en France ainsi qu'en Allemagne, Belgique, Espagne, Inde, Italie, Maroc, Roumanie, Royaume-Uni, Chine, Amérique du Nord et Suisse.","type":"Entreprise","latitude":50.602214,"longitude":3.135417},{"sector":"Automobile","name":"ALLIANCE EMPLOI","street":"40 rue Eugène Jacquet","postCode":"59708","city":"MARCQ-EN-BAROEUL","phone":"03 59 31 30 68","website":"www.alliance-emploi.org","numbers":32,"description":"Alliance Emploi est un groupement d'employeurs mettant à disposition de ses adhérents une main d'œuvre compétente et flexible pour répondre aux variations d'activités et besoins de compétences spécifiques. A la différence d'une agence intérim, Alliance Emploi apporte une stabilité certaine dans la vie de ses salariés grâce à de longs CDD et CDI, avec un temps de travail réparti entre plusieurs entreprises, tout au long de l'année","type":"Entreprise","latitude":50.659983,"longitude":3.111116},{"sector":"Automobile","name":"ALLIANCE EMPLOI","street":"7 rue de l'île mystérieuse","postCode":"80440","city":"BOVES","phone":"03 59 31 30 86","website":"www.alliance-emploi.org","numbers":37,"description":"Alliance Emploi est un groupement d'employeurs mettant à disposition de ses adhérents une main d'œuvre compétente et flexible pour répondre aux variations d'activités et besoins de compétences spécifiques. A la différence d'une agence intérim, Alliance Emploi apporte une stabilité certaine dans la vie de ses salariés grâce à de longs CDD et CDI, avec un temps de travail réparti entre plusieurs entreprises, tout au long de l'année","type":"Entreprise","latitude":49.86662,"longitude":2.364405},{"sector":"Automobile","name":"APERAM STAINLESS France","street":"rue Pierre Loti ","postCode":"62330","city":"ISBERGUES","phone":"03 21 63 58 00 ","website":"www.aperam.com","numbers":430,"description":"Transformation de tous métaux ou alliages et autres produits métallurgiques en tôles, en bandes.","type":"Entreprise","latitude":50.615091,"longitude":2.476635},{"sector":"Automobile","name":"ARCELOR MITTAL TUBULAR PRODUCTS HAUTMONT","street":"12 rue des Usines","postCode":"59330","city":"HAUTMONT","phone":"03 27 69 20 20 ","website":"www.tubulareurope.arcelormittal.com","numbers":192,"description":"La société produite des tubes soudés, essentiellement pour l'industrie automobile.","MÉTIERS":"soudure","type":"Entreprise","latitude":50.244364,"longitude":3.898861},{"sector":"Automobile","name":"ARETEC","street":"10 rue de l'industrie ","postCode":"62300","city":"LENS","phone":"03 21 78 02 22 ","website":"www.cedresindustries.com","numbers":43,"description":"ARETEC conçoit, réalise et installe des solutions industrielles sur mesure dans de nombreux process : machines de poinçonnage, moyens d’assemblage, îlots robotisés, soudure laser, soudure ultrason, bouterollage, manutention, vissage automatique, moyens de contrôle…","MÉTIERS":"soudure\r\nrobot\r\nmanutention","type":"Entreprise","latitude":50.448143,"longitude":2.829424},{"sector":"Automobile","name":"ARRAS MAXEI","street":"170 allée de France ","postCode":62000,"city":"ARRAS ","phone":"03 21 55 11 42","website":"www.maxei.fr","numbers":70,"description":"Sa division ENERGY a développé une gamme de biens d’équipement destinés aux fabricants et utilisateurs de transformateurs et moteurs électriques (Etuves sous vide, Imprégnation, Traitement d’huile) que la société exporte dans le monde entier. La division PROCESS INDUSTRY conçoit et\r\nréalise des machines spéciales, sous-ensembles mécaniques et outillages pour tous types d’industrie dont le secteur automobile","MÉTIERS":"Usinage\r\nBiens d’équipement\r\nEtudes, ingénierie, essais","type":"Entreprise","latitude":50.275181,"longitude":2.783888},{"sector":"Automobile","name":"ARTOIS PLASTIQUES","street":"rue du Marechal  Gallieni","location":"ZAL","postCode":"62150","city":"HOUDAIN","phone":"03 21 62 61 61","website":"www.artoisplastiques.fr","numbers":33,"description":"La société est spécialisée dans l’usinage des plastiques et composites, dans la mécano-soudure\r\net la chaudronnerie plastique.","MÉTIERS":"Usinage\r\nComposites\r\nCaoutchouc\r\nEtudes, ingénierie, essais\r\nVente de matières\r\npremières plastiques","type":"Entreprise","latitude":50.458873,"longitude":2.546209},{"sector":"Automobile","name":"ARTOIS QUALITE PLASTIQUE","street":"ZA les Hauts de Calonne","postCode":"62470","city":"CALONNE-RICOUART","phone":"03 21 61 78 78 ","website":"www.artois-qualite-plastique.com","numbers":24,"type":"Entreprise","latitude":50.49549,"longitude":2.479964},{"sector":"Automobile","name":"AT TECHNIC","street":"162 rue de la Chaussée Romaine ","postCode":"02100","city":"SAINT-QUENTIN","phone":"03 23 63 88 14 ","numbers":17,"type":"Entreprise","latitude":49.850572,"longitude":3.253368},{"sector":"Automobile","name":"BARON GROUPE - DIC","street":"64 Rue Louis Petit","postCode":59220,"city":"DENAIN","website":"www.baron-groupe.fr","description":"Spécialiste en conception et fabrication de machines spéciales et lignes de production depuis plus de 36 ans, le Groupe Baron propose des solutions clés en main de haute performance pour automatiser vos procédés industriels.","MÉTIERS":"Usinage\r\nElectricité/électronique\r\nAssemblage\r\nFixation\r\nMoules et outillage\r\nBiens d’équipement\r\nEtudes, ingénierie, essais\r\nPrestation de service","type":"Entreprise","latitude":50.321686,"longitude":3.381152},{"sector":"Automobile","name":"BARON GROUPE","street":"\r\nAvenue de l'Europe\r\n","location":"ZA de la Maie","postCode":62720,"city":" RINXENT","website":"www.baron-groupe.fr","description":"Spécialiste en conception et fabrication de machines spéciales et lignes de production depuis plus de 36 ans, le Groupe Baron propose des solutions clés en main de haute performance pour automatiser vos procédés industriels.","MÉTIERS":"Usinage\r\nElectricité/électronique\r\nAssemblage\r\nFixation\r\nMoules et outillage\r\nBiens d’équipement\r\nEtudes, ingénierie, essais\r\nPrestation de service","type":"Entreprise","latitude":50.808451,"longitude":1.73119},{"sector":"Automobile","name":"BARON GROUPE","street":"Rue Roger Dumoulin\r\n","location":"Village PMI n°4\r\nEspace Industriel Nord","postCode":80000,"city":" AMIENS","website":"www.baron-groupe.fr","description":"Spécialiste en conception et fabrication de machines spéciales et lignes de production depuis plus de 36 ans, le Groupe Baron propose des solutions clés en main de haute performance pour automatiser vos procédés industriels.","MÉTIERS":"Usinage\r\nElectricité/électronique\r\nAssemblage\r\nFixation\r\nMoules et outillage\r\nBiens d’équipement\r\nEtudes, ingénierie, essais\r\nPrestation de service","type":"Entreprise","latitude":49.927713,"longitude":2.286784},{"sector":"Automobile","name":"BARON GROUPE","street":"\r\nRue des Garennes\r\n\r\n","location":"ZI des Dunes","postCode":62100,"city":"CALAIS","website":"www.baron-groupe.fr","description":"Spécialiste en conception et fabrication de machines spéciales et lignes de production depuis plus de 36 ans, le Groupe Baron propose des solutions clés en main de haute performance pour automatiser vos procédés industriels.","MÉTIERS":"Usinage\r\nElectricité/électronique\r\nAssemblage\r\nFixation\r\nMoules et outillage\r\nBiens d’équipement\r\nEtudes, ingénierie, essais\r\nPrestation de service","type":"Entreprise","latitude":50.964409,"longitude":1.877956},{"sector":"Automobile","name":"BARON GROUPE","street":"38 rue de l'Abbé Grégoire\r\n\r\n\r\n","location":"Zone des Repdyck","postCode":59760,"city":" GRANDE-SYNTHE","website":"www.baron-groupe.fr","description":"Spécialiste en conception et fabrication de machines spéciales et lignes de production depuis plus de 36 ans, le Groupe Baron propose des solutions clés en main de haute performance pour automatiser vos procédés industriels.","MÉTIERS":"Usinage\r\nElectricité/électronique\r\nAssemblage\r\nFixation\r\nMoules et outillage\r\nBiens d’équipement\r\nEtudes, ingénierie, essais\r\nPrestation de service","type":"Entreprise","latitude":50.990561,"longitude":2.301006},{"sector":"Automobile","name":"BARON GROUPE","street":"\r\n1 rue du Tilleul\r\n","location":"ZA du bois","postCode":59840,"city":" PÉRENCHIES","website":"www.baron-groupe.fr","description":"Spécialiste en conception et fabrication de machines spéciales et lignes de production depuis plus de 36 ans, le Groupe Baron propose des solutions clés en main de haute performance pour automatiser vos procédés industriels.","MÉTIERS":"Usinage\r\nElectricité/électronique\r\nAssemblage\r\nFixation\r\nMoules et outillage\r\nBiens d’équipement\r\nEtudes, ingénierie, essais\r\nPrestation de service","type":"Entreprise","latitude":50.660617,"longitude":2.97465},{"sector":"Automobile","name":"BRIDGESTONE","street":"rue Abraham Lincolm","postCode":"62401","city":"BETHUNE","phone":"03 21 64 77 00","website":"www.bridgestone.eu","numbers":1000,"description":"Leader mondial de la fabrication de pneumatique","MÉTIERS":"Fabrication","type":"Entreprise","latitude":50.539057,"longitude":2.653539},{"sector":"Automobile","name":"BV PRODUCTIONS","street":"rue Jean Rostand ","postCode":"62420","city":"BILLY-MONTIGNY","phone":"03 21 08 18 20","website":"www.bv-productions.com","numbers":42,"description":"Depuis 1982, BV PRODUCTIONS, carrossier constructeur situé près de Lens, s’est reconverti vers les sièges et les accessoires pour les véhicules utilitaires légers.","MÉTIERS":"Constructeur (carrossier\r\nconstructeur)\r\nBiens d’équipement","type":"Entreprise","latitude":50.412884,"longitude":2.907956},{"sector":"Automobile","name":"Cadence Industrie","street":"1 rue Lavoisier ","postCode":"62290","city":"NOEUX-LES-MINES","phone":"03 21 64 74 00 ","website":"www.plastiwell-international.com","numbers":77,"description":"PlastiWell, expert plasturgiste, continue de renforcer son excellence dans de nombreux domaines. Son savoir faire intègre le codesign des pièces, la réalisation des outillages, la fabrication de pièces et de sous-ensembles.","MÉTIERS":"plasturgie\r\nsérigraphie\r\npeinture","type":"Entreprise","latitude":50.48715,"longitude":2.67262},{"sector":"Automobile","name":"CARLIER PLASTIQUES & COMPOSITES","street":"15 Chaussée Brunehaut ","postCode":"62470","city":"CALONNE-RICOUART","phone":"03 21 65 54 54","website":"www.carlier-plastiques.com","numbers":106,"description":"CARLIER PLASTIQUES fabrique des panneaux en composites pour les carrosseries de véhicules poids lourds du 3.5T aux semiremorques.","MÉTIERS":"Composites","type":"Entreprise","latitude":50.485047,"longitude":2.471863},{"sector":"Automobile","name":"COTTINET","street":"27 rue de Boves ","postCode":"80250","city":"AILLY-SUR-NOYE","phone":"03 22 41 06 15 ","website":"http://www.cottinet.fr","numbers":120,"description":"Cottinet est une entreprise de découpage - emboutissage des métaux en feuille et transformateur de matériaux composites pour le moulage de produits structuraux et semi-structuraux destinés au marché automobile.","MÉTIERS":"emboutissage\r\nmétallurgie\r\n","type":"Entreprise","latitude":49.763845,"longitude":2.364932},{"sector":"Automobile","name":"CQM+","street":"Rue Christophe Colomb ","location":"Parc de la Porte Nord","postCode":"62700","city":"BRUAY-LA-BUISSIERE","phone":"03 91 80 02 20 ","website":"http://www.cqmplus.com","numbers":4,"description":"Expertise dans le Contrôle Qualité Métrologie pour les professionnels de tous les secteurs industriels","MÉTIERS":"Métrologie","type":"Entreprise","latitude":50.49524,"longitude":2.574855},{"sector":"Automobile","name":"CREATIQUE TECHNOLOGIE","street":"501, rue D'athenes ","location":"PI Artois Flandres ","postCode":"62138","city":"BILLY-BERCLEAU","phone":"03 21 08 18 58 ","website":"www.creatique-technologie.com","numbers":48,"description":"CREATIQUE Technologie est reconnue par de nombreux acteurs de l’industrie automobile, télécommunications, ferroviaires, manufacturière, aéronautique et dans l’industrie électrique en général. Ses métiers reconnus : la connectique de test, les systèmes de test, la mécanique de précision et les solutions de gestion informatique.","MÉTIERS":"Constructeur\r\nElectricité/électronique\r\nBiens d’équipement\r\nEtudes, ingénierie, essais\r\nPrestation de service","type":"Entreprise","latitude":50.516601,"longitude":2.85319},{"sector":"Automobile","name":"CRITTM2A","street":"Rue Christophe Colomb ","location":"Parc de la Porte Nord","postCode":"62700","city":"BRUAY-LA-BUISSIERE","phone":"03 91 80 02 02","website":"www.crittm2a.com","numbers":36,"description":"Le CRITT M2A propose des essais de mise au point et d’endurance moteurs sur 7 bancs d’essais, ainsi que des mesures acoustiques et vibratoires sur des équipements de haute technologie.","MÉTIERS":"test\r\ningénierie","type":"Entreprise","latitude":50.49524,"longitude":2.574855},{"sector":"Automobile","name":"CYCLAM (groupe AVO CARBON)","street":"75 rue Robert le coq ","postCode":"80000","city":"AMIENS","phone":"03 22 54 59 70 ","website":"www.cyclam.fr ","numbers":56,"description":"Garniture d'étanchéité dynamique, fournisseur automobile de pièces détachées, de produits industriels.","MÉTIERS":"Fabrication","type":"Entreprise","latitude":49.900338,"longitude":2.269157},{"sector":"Automobile","name":"DATA PLASTIQUE","street":"1 rue Louyot ","postCode":"60540","city":"BORNEL","phone":"03 44 08 49 12 ","website":"www.data-plastique.fr ","numbers":24,"description":"Data Plastique conçoit et fabrique tout type de pièces techniques pour divers secteurs industriels,  par transformation de matières plastiques par injection","MÉTIERS":"plasturgie\r\nthermie","type":"Entreprise","latitude":49.201205,"longitude":2.21869},{"sector":"Automobile","name":"DEFTA ESSOMES","street":"48 rue Jacques Fourrier ","postCode":"02400","city":"ESSOMES-SUR-MARNE","phone":"03 23 83 86 00 ","website":"http://defta.eu","numbers":177,"description":"DEFTA décline son savoir-faire dans les secteurs de la Découpe de l’Emboutissage du Fil du Tube et de l’Assemblage. C’est cette expertise reprise dans les initiales de son nom qui lui a permis de déployer ses usines à proximité des constructeurs automobiles mondiaux. ","MÉTIERS":"Emboutissage\r\ntubage","type":"Entreprise","latitude":49.029954,"longitude":3.366492},{"sector":"Automobile","name":"DEGAND MARQUAGE","street":"28D rue Jean Perrin ","postCode":"59500","city":"DOUAI","phone":"03 27 99 77 11 ","website":"www.degandmarquage.fr","numbers":12,"description":"Tout en conservant une activité historique de gravure, l’entreprise s’est développée progressivement en utilisant les technologies nouvelles liées aux progrès de l’informatique.","MÉTIERS":"Gravure\r\nmarquage","type":"Entreprise","latitude":50.39276,"longitude":3.096127},{"sector":"Automobile","name":"DELCROIX KLEGE EUROP","street":"Rue du Faubourg de Peronne ","postCode":"62453","city":"BAPAUME","phone":"03 21 24 67 00 ","website":"www.delcroix.fr","numbers":101,"description":"Spécialiste de la carrosserie frigorifique depuis plus de 50 ans, Delcroix Kelge Europ conçoit, fabrique et vend des carrosseries adaptées à tout type de châssis, de 2,8 à 34 tonnes.","MÉTIERS":"carrosserie\r\nmétallurgie","type":"Entreprise","latitude":50.10032,"longitude":2.852895},{"sector":"Automobile","name":"DELZEN","street":"83 avenue de Londres ","location":"ZI Artois Flandres","postCode":"62092","city":"HAISNES","phone":"03 91 83 05 05","website":"https://www.delzen.fr","numbers":63,"description":"DELZEN est spécialisée dans la fabrication de fonctions métalliques découpées-embouties en aciers, alu ou inox. L’assemblage, le traitement de surface et le taraudage par déformation complètent son offre.","MÉTIERS":"Emboutissage\r\nTraitement de surface","type":"Entreprise","latitude":50.516842,"longitude":2.626294},{"sector":"Automobile","name":"DEREGNAUCOURT SAS","street":"500 rue des Bourreliers ","postCode":"59320","city":"HALLENES-LEZ-HAUBOURDIN","phone":"03 20 52 52 31 ","website":"http://www.deregnaucourt.fr","numbers":38,"description":"L'entreprise se démarque par la réalisation de pièces mécaniques de moyennes et grandes dimensions, à l’unité, en petites ou moyennes séries, sur tous types de métaux.\r\nLa construction de pièces et d’ensembles mécano-soudés, la réparation de toutes pièces mécaniques, le rétrofit de sous-ensembles mécaniques complets s’ajoutent à notre champs de compétences","MÉTIERS":"Mécanique\r\nSoudure\r\nrétrofit","type":"Entreprise","latitude":50.607547,"longitude":2.958529},{"sector":"Automobile","name":"DIAGRAMS TECHNOLOGIES","street":"165 Avenue de Bretagne","postCode":"59650","city":"VILLENEUVE D'ASCQ","phone":"03 59 08 32 30","website":"http://diagrams-technologies.com","description":"Expert de l’analyse de données industrielles, Diagram Technologies développe un logiciel dédié à la maintenance prédictive.","MÉTIERS":"Maintenance\r\ninformatique","type":"Entreprise","latitude":50.6339,"longitude":3.162833},{"sector":"Automobile","name":"DOURDIN","street":"25 rue Emile Vandamme ","postCode":"59350","city":"SAINT-ANDRE-LEZ-LILLE","phone":"03 20 63 07 70 ","website":"www.dourdin.fr ","numbers":87,"description":"Imprimeur en 1958, DOURDIN SA a débuté son aventure automobile dans les années 70 en imprimant des films adhésifs. Fin des années 90 début 2000, DOURDIN SA marque sa volonté d’explorer d’autres technologies : Chromage de pièces plastiques, Insert Molding / Thermogainage, emboutissage, découpe de pièces d’aspect, impression laser, impression tampographique, peinture, anodisation...","MÉTIERS":"Emboutissage\r\nTraitement de surface\r\nAssemblage\r\nEtudes, ingénierie, essais\r\nimpression\r\nfilms adhésifs","type":"Entreprise","latitude":50.665181,"longitude":3.05841},{"sector":"Automobile","name":"DURISOTTI","street":"Avenue de la Fosse 13","postCode":"62430","city":"SALLAUMINES","phone":"03 21 69 24 24 ","website":"ww.durisotti.com","numbers":387,"description":"DURISOTTI a développé en 50 ans, le plus important site industriel français pour la transformation de véhicules utilitaires légers destinés aux marchés français et étrangers.","MÉTIERS":"Constructeur\r\nTraitement de surface\r\nElectricité/électronique\r\nComposites\r\nAssemblage\r\nMoules et outillage\r\nEtudes, ingénierie, essais","type":"Entreprise","latitude":50.422087,"longitude":2.851522},{"sector":"Automobile","name":"DV GROUP","street":"123 rue d'Oslo ","location":"Parc des Industries Artois Flandres ","postCode":62138,"city":"DOUVRIN","phone":"0 825 82 58 26 ","website":"www.dv-group.com","numbers":150,"description":"Le groupe est aujourd’hui composé de cinq activités que sont : la maintenance électromécanique, la\r\nmaintenance électronique, la maintenance prédictive, l’électricité – automatisme et\r\nle négoce.","MÉTIERS":"Maintenance\r\nélectricité\r\nélectronique","type":"Entreprise","latitude":50.523655,"longitude":2.835208},{"sector":"Automobile","name":"Dylco","street":"53 rue Pasteur ","postCode":"59980","city":"BERTRY","phone":"03 27 75 18 00","website":"www.dylco.com ","numbers":30,"description":"DYLCO, le département Textiles Techniques de Carpentier-Preux, possède plus de 50 ans d’expérience en tricotage sous toutes ses formes, grâce à son organisation intégrée : ourdissage, tricotage, teinture, apprêt et finition…","MÉTIERS":"textile","type":"Entreprise","latitude":50.091881,"longitude":3.447686},{"sector":"Automobile","name":"ETCI","street":"11 rue de l'Industrie ","postCode":"62300","city":"LENS","phone":"03 21 78 03 78 ","website":"https://www.ecti.org/index.php/fr","description":"ECTI se donne pour vocation de contribuer au développement économique et social par : le conseil et l’assistance aux entreprises en France et à l’international, l’aide aux élèves et étudiant pour la réussite de leur vie professionnelle, l’appui aux collectivités territoriales,  l’aide aux demandeurs d’emploi pour réussir leur insertion professionnelle","MÉTIERS":"conseil","type":"Entreprise","latitude":50.448693,"longitude":2.830352},{"sector":"Automobile","name":"ETS G. VERBRUGGE & FILS","street":"2 rue de la Prévoyance ","postCode":"59000","city":"LILLE","phone":"03 20 53 74 55 ","website":"https://www.verbrugge.fr","numbers":45,"description":"VERBRUGGE est spécialisée dans les traitements de surfaces anti-usure et anti-corrosion, tels que le chromage dur et le nickel chimique.","MÉTIERS":"Traitement de surface","type":"Entreprise","latitude":50.613358,"longitude":3.052663},{"sector":"Automobile","name":"EUROBAUT - Européenne de Robotique et d'Automatisme","street":"350 rue Arthur Brunet ","postCode":"59220","city":"DENAIN","phone":"03 27 09 00 90","website":"www.eurobaut.com","numbers":20,"description":"La société EUROBAUT propose ses services pour l’étude d’applications robotisées, la programmation de robots et d’automates industriels tant dans la conception et la mise en service d’installations nouvelles que dans la modification, l’analyse, l’optimisation et la fiabilisation de sites existants.","MÉTIERS":"Etudes, ingénierie, essais\r\nPrestation de service","type":"Entreprise","latitude":50.324181,"longitude":3.381216},{"sector":"Automobile","name":"EUROSTYLE SYSTEMS VALENCIENNES","street":"3 avenue Jean Monnet ","postCode":"59111","city":"LIEU-SAINT-AMAND","phone":"03 27 33 87 00 ","website":"www.eurostyle-systems.fr ","numbers":189,"description":"Présent dans le monde entier, Eurostyle Systems est un des trois principaux acteurs pour le développement et la production de composants plastiques et de modules du secteur automobile et de l’industrie du poids lourd.","MÉTIERS":"plasturgie","type":"Entreprise","latitude":50.272149,"longitude":3.325737},{"sector":"Automobile","name":"EXPERTYS","street":"12 rue Denfert Rochereau","postCode":"02100","city":"SAINT-QUENTIN","phone":"03 23 05 42 39 ","website":"www.expertys-team.fr","numbers":2,"description":"Recrutement, attraction et fidélisation des talents, optimisation des performances de l’entreprise. ","MÉTIERS":"ressources humaines","type":"Entreprise","latitude":49.852847,"longitude":3.282387},{"sector":"Automobile","name":"FACIL","street":"85 rue du Champ des Oiseaux ","postCode":"59230","city":"SAINT-AMAND-LES-EAUX","numbers":36,"description":"Ingénierie, études techniques","MÉTIERS":"ingénierie","type":"Entreprise","latitude":50.441703,"longitude":3.395637},{"sector":"Automobile","name":"FAURECIA INDUSTRIES ","street":"chemin Noyelles ","postCode":"62256","city":"HENIN-BEAUMONT","phone":"03 21 79 62 62 ","website":"www.faurecia.com","numbers":440,"description":"Equipementier de rang 1 avec comme vocation la fabrication de planches de bord, consoles centrales et panneaux de porte.","MÉTIERS":"Injection extrusion","type":"Entreprise","latitude":50.397965,"longitude":2.973641},{"sector":"Automobile","name":"FAURECIA Interior Systems (usine de Saint-Quentin)","street":"rue André Missenard ","postCode":"02100","city":"SAINT-QUENTIN","phone":"03 23 05 51 00","website":"www.faurecia.com","numbers":157,"description":"Faurecia Interiors développe et fabrique des systèmes d’intérieur complets, comprenant notamment planches de bord, panneaux de portes,s consoles centrales, surfaces intelligentes, interfaces homme-machine intuitives, ainsi que des solutions pour une gestion personnalisée du confort thermique et de la qualité de l'air dans l'habitacle.","MÉTIERS":"fabrication\r\nconception\r\ndesign","type":"Entreprise","latitude":49.850941,"longitude":3.25083},{"sector":"Automobile","name":"FAURECIA SEATING FLERS","street":"Zoning Industriel Les près Loribes ","postCode":"59128","city":"FLERS-EN-ESCREBIEUX","phone":"03 27 96 91 42 ","website":"https://www.faurecia.com","numbers":514,"description":"Faurecia Seating développe et fabrique les différents systèmes qui composent un siège. Fort d’un savoir-faire technologique reconnu, l’activité place le confort, la qualité perçue et la sécurité au cœur de sa stratégie d’innovation. ","MÉTIERS":"fabrication\r\nconception\r\ndesign","type":"Entreprise","latitude":50.407417,"longitude":3.064479},{"sector":"Automobile","name":"FRANÇAISE DE MÉCANIQUE","street":"602, Boulevard Sud\r\n","location":"Parc des Industries Artois Flandres","postCode":62138,"city":" DOUVRIN","website":"www.francaisedemecanique.com","numbers":3400,"description":"Française de Mécanique est une filiale de PSA Peugeot Citroën et Renault qui ont souhaité fabriquer en commun des moteurs. 3 400 salariés produisent quotidiennement près de 5000 moteurs qui sont expédiés dans la plupart des unités terminales de PSA et Renault en Europe, mais aussi à l’international","MÉTIERS":"Usinage\r\nAssemblage","type":"Entreprise","latitude":50.511648,"longitude":2.844032},{"sector":"Automobile","name":"FAVI","street":"14 rue Louis Deneux ","postCode":"80490","city":"HALLENCOURT","phone":"03 22 28 20 50 ","website":"http://www.favi.com","numbers":311,"description":"FAVI développe et réalise des sous-ensembles complets et pièces techniques en fonderie sous pression aluminium, laiton et cuivre pour de nombreux secteurs d’activité.","MÉTIERS":"industrie\r\nfonderie","type":"Entreprise","latitude":49.994976,"longitude":1.882071},{"sector":"Aéronautique, Automobile","name":"FEDERAL - MOGUL POWERTRAIN Systems Protection","street":"63 rue Henri Laroche ","postCode":"60800","city":"CRÉPY-EN-VALOIS","website":"http://www.federalmogul.com","numbers":247,"description":"Fabrication de gaines en fils de verre tressés et isolants électriques à destination des secteurs automobile, aérospatial et défense.","type":"Entreprise","latitude":49.225429,"longitude":2.904599},{"sector":"Automobile","name":"FMB TECHNOLOGIES","street":"17 Avenue du Président Roosevelt","postCode":"80220","city":"BOUTTENCOURT","phone":"02 32 97 51 80 ","website":"https://plastitek.fr/","numbers":12,"description":"Spécialiste de l’injection plastique bi-matière, surmoulage, bi-injection et conception de moules, le groupe opère dans les secteurs automobile, pharmacie, bâtiment, électricité, relocalisation.","MÉTIERS":"plasturgie\r\nélectricité","type":"Entreprise","latitude":49.938123,"longitude":1.625596},{"sector":"Automobile","name":"FRANCEM","street":"79 AVENUE René Firmin ","postCode":"60410","city":"VERBERIE","phone":"03 44 38 62 38 ","website":"www.francem.fr","numbers":51,"description":"Francem conçoit, fabrique et commercialise principalement des profilés alvéolaires et compacts pour l’industrie de l’automobile, de l’électro-ménager et du bâtiment.","type":"Entreprise","latitude":49.319292,"longitude":2.739585},{"sector":"Automobile","name":"GALION SOLUTIONS","street":"143 Boulevard de Valmy ","postCode":"59650","city":"VILLENEUVE D'ASCQ","phone":"03 20 67 74 80 ","website":"www.galion-solutions.com","numbers":12,"description":"GALION Solutions est éditeur et intégrateur du progiciel GALION Automotive.","MÉTIERS":"emballage\r\nétiquetage","type":"Entreprise","latitude":50.617384,"longitude":3.125871},{"sector":"Automobile","name":"GALLEZ INDUSTRIE HOLDING","street":"650 Boulevard Ouest ","location":"Parc des Industries Artois Flandres ","postCode":"62138","city":"DOUVRIN","phone":"03 21 79 35 00 ","website":"www.gallez.fr","numbers":76,"description":"Développement Pièces, Conception et Réalisation d’Outillages d’injection.\r\nMécaniques générales et de précision, Machines spéciales.","MÉTIERS":"Usinage\r\nInjection extrusion\r\nMoules et outillage\r\nEtudes, ingénierie, essais","type":"Entreprise","latitude":50.517116,"longitude":2.837227},{"sector":"Automobile","name":"GEOMNIA","street":"23 RUE Denis Papin D ","postCode":"59650","city":"VILLENEUVE D'ASCQ","phone":"03 59 05 91 23 ","website":"www.geomnia.eu ","numbers":7,"description":"GEOMNIA a pour vocation de répondre aux problèmes géométriques les plus difficiles de l’industrie, via une gamme logicielle et des solutions de mesure 3D intelligentes qui garantissent, quelque soit la complexité géométrique, une précision maximale, davantage d’efficacité et une meilleure productivité.","MÉTIERS":"Etudes, ingénierie, essais\r\nPrestation de service\r\nlogiciels et dispositifs\r\npour la métrologie\r\ndimensionnelle","type":"Entreprise","latitude":50.647852,"longitude":3.128921},{"sector":"Automobile","name":"GIA - GARNISSAGE INTERIEUR AUTOMOBILE","street":"20e avenue Kennedy","postCode":"59610","city":"FOURMIES","phone":"03 27 60 36 79 ","website":"www.gia.fr","numbers":50,"description":"GIA est le fabriquant n°1 de housses de sièges des constructeurs dans les secteurs de l’automobile, du poids lourd, des machines agricoles et des engins de chantier, tant pour l’accessoire que pour les séries spéciales. Tapis et accessoires de sièges complètent l’offre d’habillage des habitacles et cabines.","MÉTIERS":"Textile","type":"Entreprise","latitude":50.00878,"longitude":4.046763},{"sector":"Automobile","name":"GRUPO ANTOLIN CAMBRAI","street":"Actipôle de l'A2","postCode":"59554","city":"RAILLENCOURT-SAINTE-OLLE","phone":"03 27 70 79 00 ","website":"www.grupoantolin.com ","numbers":300,"description":"Grupo Antolin Cambrai est spécialisé dans la fabrication des ébénisteries et panneaux de porte.","MÉTIERS":"Injection","type":"Entreprise","latitude":50.196949,"longitude":3.197261},{"sector":"Automobile","name":"GRUPO ANTOLIN IGA","street":"734 boulevard Ferdiland de Lesseps ","postCode":"62110","city":"HENIN-BEAUMONT","phone":"03 21 74 78 80 ","website":"www.grupoantolin.com ","numbers":300,"description":"IGA est spécialisé dans la fonction de « garniture de pavillon » et depuis 2010 dans la fonction « occulteur » pour PSA .","MÉTIERS":"Thermoformage/\r\nmoussage","type":"Entreprise","latitude":50.402817,"longitude":2.963604},{"sector":"Automobile","name":"GT ENGINEERING","street":"2-638 RUE DE Gamand ","postCode":"59810","city":"LESQUIN","website":"http://www.gte-design.com","numbers":12,"description":"La société lilloise a mis au point un kit d'hybridation qui vise à réduire de 70 % la consommation des utilitaires en les transformant en modèles hybrides.","MÉTIERS":"hybride\r\nmotorisation","type":"Entreprise","latitude":50.580864,"longitude":3.121417},{"sector":"Automobile","name":"GTM France","street":"rue des Coopérateurs","postCode":"59722","city":"DENAIN","phone":"03 27 31 00 00 ","website":"www.lagtm.com","numbers":32,"description":"Spécialisée dans le traitement thermique des aciers (barres et tubes), en nuance carbone ou alliée, la GTM- France est le  spécialiste des traitements thermiques et parachèvement des aciers.","MÉTIERS":"thermie\r\nmétallurgie","type":"Entreprise","latitude":50.335746,"longitude":3.385874},{"sector":"Automobile","name":"HEDIMAG","street":"59 rue de vieux Berquin ","postCode":"59190","city":"HAZEBROUCK","phone":"03 28 40 20 00 ","website":"www.hedimag.com ","description":"Hedimag est votre spécialiste du commerce mobile. La société réalise des food trucks, camions, remorques, containers, kiosques, triporteurs pour votre activité: cuisine mobile, friterie, pizzeria, rôtisserie, boucherie etc.","MÉTIERS":"fabrication\r\nconception\r\ndesign","type":"Entreprise","latitude":50.717435,"longitude":2.552348},{"sector":"Automobile","name":"HIMBER TECHNOLOGIES","street":"43 rue Louis Blériot ","postCode":"62200","city":"BOULOGNE-SUR-MER","phone":"03 21 87 07 07 ","website":"www.himbertechno.com ","description":"Himber technologies développons des moyens fiables en intégrant les technologies les plus innovantes pour les projets d’assemblage, robotique, vision et contrôle, usinage et manipulation.","type":"Entreprise","latitude":50.723854,"longitude":1.602278},{"sector":"Automobile","name":"HIVE ELECTRIC","street":"11 Avenue de l'harmonie ","postCode":"59650","city":"VILLENEUVE D'ASCQ","description":"Développe des piles rechargeables sans les métaux rares nécessaires aux batteries lithium","MÉTIERS":"développement durable\r\nénergie","type":"Entreprise","latitude":50.604125,"longitude":3.152514},{"sector":"Automobile","name":"IGOL (holding Cipelia)","street":"614 rue de Cagny ","postCode":"80090","city":"AMIENS","phone":"03 22 47 79 47 ","website":"www.igol.com ","description":"la Société Igol est un fabricant français d’huile ou lubrifiant moteur pour les secteurs automobile, moto, industrie, BTP, machines agricoles…","type":"Entreprise","latitude":49.873323,"longitude":2.331269},{"sector":"Automobile","name":"INDELEC MOBILITY","street":"61 Chemin des Postes ","postCode":"59500","city":"DOUAI","phone":"03 27 94 43 61 ","website":"www.indelecmobility.fr","numbers":1,"description":"INDELEC Mobility vous accompagne en réalisant la conception, l'installation et la maintenance de votre borne de recharge ou infrastructure de recharge de véhicules électriques ","MÉTIERS":"développement durable\r\nénergie","type":"Entreprise","latitude":50.355729,"longitude":3.090111},{"sector":"Automobile","name":"Industries Packaging Services","street":"26 rue du Pont ","postCode":"58158","city":"MAULDE","phone":"03 27 25 67 31 ","numbers":15,"description":"Société d'exploitation du bois: scierie mécanique et traitement du bois, travail du bois et fabrication d'articles en bois pour fabrication d'emballages et caisses en bois sur mesure, fabrication de palettes pour tous types de transports (aériens, maritimes, routiers,...).","MÉTIERS":"emballage","type":"Entreprise","latitude":50.503879,"longitude":3.431959},{"sector":"Automobile","name":"INTEREP ( SOCATEX)","street":"21 rue du trieu du quesnoy ","postCode":"59115","city":"LEERS","website":"https://www.interep.fr","description":"INTEREP, leader européen sur le marché du caoutchouc cellulaire étanche.","MÉTIERS":"chimie\r\nplasturgie","type":"Entreprise","latitude":50.671743,"longitude":3.240886},{"sector":"Automobile","name":"ITD LOGISTICS SAS","street":"Bd. Jacques Dewavrin","location":"Z.I Est ","postCode":"62260","city":"AUCHEL","phone":"03 21 57 70 00","website":"www.itdlogistics.com ","description":" ITD Transport Logistics  apporte la solution à vos besoins en matière de logistique et de transports routiers.","MÉTIERS":"transport routier","type":"Entreprise","latitude":50.517121,"longitude":2.472188},{"sector":"Automobile","name":"ITW de France","street":"3 allée Louis Lumière ","postCode":"60110","city":"MERU","phone":"03 44 22 35 67 ","description":"Spécialiste dans tout domaine de la fabrication de matières plastiques pour l'industrie automobile à savoir dans le moulage par injection des plastiques, des pièces en plastique pour l'industrie automobile.","MÉTIERS":"plasturgie\r\nmoulage","type":"Entreprise","latitude":49.221744,"longitude":2.128196},{"sector":"Automobile","name":"KELVION","street":"2 rue de l'Electrolyse ","postCode":"62410","city":"WINGLES","phone":"03 21 69 89 00 ","website":"www.kelvion.com","description":"Un des principaux fabricants d’échangeurs de chaleur au monde","MÉTIERS":"thermie","type":"Entreprise","latitude":50.493784,"longitude":2.863481},{"sector":"Automobile","name":"LEAR CORPORATION SEATING France","street":"95 rue de Neuf-Mesnil ","postCode":"59750","city":"FEIGNIES","phone":"03 27 64 41 63 ","website":"https://www.lear.com","numbers":51,"description":"Entreprise  spécialisée dans la fabrication d'équipement automobile. Egalement un atelier de garnissage de sièges d'automobile la fourniture de sièges complets à des constructeurs automobiles.","MÉTIERS":"garnissage\r\néquipement","type":"Entreprise","latitude":50.277767,"longitude":3.90902},{"sector":"Automobile","name":"LENZE","street":"rue de Ruitz","location":"Zone Industrielle","postCode":"62620","city":"RUITZ","phone":"03 91 80 15 30 ","website":"www.lenze.fr","numbers":26,"description":"Lenze est un fournisseur de solutions d’entrainements fiables, performants et économiques pour les fabricants de machines à travers le monde, avec des sites hors france commerciaux, logistiques ou industriel sur tous les continents.","MÉTIERS":"Constructeur\r\nElectricité/électronique\r\nAssemblage\r\nBiens d’équipement","type":"Entreprise","latitude":50.454107,"longitude":2.600677},{"sector":"Automobile","name":"LHH Altedia","street":"06 rue Colbert Bât C ","postCode":"80000","city":"AMIENS","phone":"03 22 49 68 86 ","numbers":5,"type":"Entreprise","latitude":49.893137,"longitude":2.275291},{"sector":"Automobile","name":"LOBEL MECANIQUE DE PRECISION SAS","street":"22 RUE Pierre Jacquart ","postCode":"62440","city":"HARNES","phone":"03 21 13 57 77 ","website":"https://www.lobel.fr","numbers":25,"description":"L’entreprise est spécialisée en mécanique de précision et de haute précision. Les pièces réalisées sont, par exemple, des outillages, des pièces d’usures de machines, des ensembles complets montés, des montages de contrôle.","MÉTIERS":"Usinage\r\nTraitement de surface","type":"Entreprise","latitude":50.465232,"longitude":2.918394},{"sector":"Automobile","name":"LOG'S","street":"390 rue du Calvaire ","postCode":"59810","city":"LESQUIN","phone":"03 20 10 64 64","website":"www.log-s.eu","numbers":1700,"type":"Entreprise","latitude":50.583456,"longitude":3.119969},{"sector":"Automobile","name":"LR TECHNOLOGIES NORD","street":"217 boulevard de la Liberté","location":"Immeuble Paris Liberté","postCode":"59000","city":"LILLE","phone":"01 30 97 02 90","website":"https://lrtechnologies.fr/fr","type":"Entreprise","latitude":50.63298,"longitude":3.005314},{"sector":"Automobile","name":"LUCHARD INDUSTRIE (GMD stamping)","street":"Route de Feuquières","location":"Zone Industrielle","postCode":"60210","city":"GRANDVILLIERS","phone":"03 44 46 41 41 ","numbers":101,"type":"Entreprise","latitude":49.64702,"longitude":1.91513},{"sector":"Automobile","name":"MANUBOB","street":"244 rue de la lys","postCode":"59250","city":"HALLUIN","phone":"03 20 28 10 10 ","website":"www.manubob-industrie.fr","numbers":20,"description":"Développeur de solutions, constructeur et intégrateur Manubob-Industrie est spécialisé dans la conception et la fabrication de conditionnements et d’emballages.","MÉTIERS":"Biens d’.quipement","type":"Entreprise","latitude":50.786248,"longitude":3.126765},{"sector":"Automobile","name":"MARSY TRANSPORTS LOGISTICS","street":"30 Place des Augutins","postCode":"59480","city":"LA BASSEE","phone":"09 70 20 00 00","website":"https://www.marsy.eu","numbers":25,"description":"MARSY Transport-Logistics organise quotidiennement plus de 200 transports de la palette au camion complet de marchandises conditionnées pour toute l’Industrie Européenne.","MÉTIERS":"Prestation de service\r\nTransport\r\nLogistique","type":"Entreprise","latitude":50.53138,"longitude":2.806709},{"sector":"Automobile","name":"MATIKEM","street":"9 rue heloïse","postCode":"59650","city":"VILLENEUVE D'ASCQ","phone":"03 20 34 54 80 ","website":"www.matikem.com","type":"Entreprise","latitude":50.603832,"longitude":3.151225},{"sector":"Automobile","name":"MATT - MANUFACTURE DE L'AISNE DE TRANSFORMATION TEXTILE","street":"Route de Vincy ","postCode":"02340","city":"MONTCORNET","website":"www.treves-group.com","type":"Entreprise","latitude":49.666507,"longitude":3.937864},{"sector":"Automobile","name":"MAYR France","street":"ZAL du Minopole","postCode":"62160","city":"BULLY-LES-MINES","phone":"03 21 72 91 91 ","website":"www.mayr.com ","numbers":15,"description":"L’entreprise MAYR est spécialisée dans la transmission de mouvement et s’adresse à tous les secteurs de l’industrie. Leader notamment sur le secteur des limiteurs de couple de sécurité et également très active dans le secteur des freins de sécurité, des embrayages électromécaniques et des accouplements.","MÉTIERS":"Biens d’.quipement","type":"Entreprise","latitude":50.456043,"longitude":2.715837},{"sector":"Automobile","name":"MCA - MAUBEUGE CONSTRUCTION AUTOMOBILE","street":"107 Avenue André Chausson","postCode":59750,"city":"FEIGNIES","website":"https://group.renault.com/groupe/implantations/usine-maubeuge-mca/","numbers":1639,"description":"Maubeuge Construction Automobile (Nord, France) se consacre entièrement à Kangoo et ses dérivés utilitaires. Après avoir produit plusieurs générations de Kangoo, l’usine s'est engagée sur la voie de l'électrique avec la production de Kangoo Z.E.\r\nL'usine est spécialisée dans la fabrication de petits véhicules utilitaires en Europe.","MÉTIERS":"Constructeur","type":"Entreprise","latitude":50.270685,"longitude":3.908167},{"sector":"Automobile","name":"MC SYNCRO France SAS","street":"Parc activités Valée Escaut","postCode":"59264","city":"ONNANG","phone":"03 27 51 59 90 ","type":"Entreprise","latitude":50.369851,"longitude":3.615413},{"sector":"Automobile","name":"MENWAYS - CONSEIL","street":"110 avenue de Fladre ","postCode":"59290","city":"WASQUEHAL","phone":"03 59 35 20 04","website":"https://menway.com","type":"Entreprise","latitude":50.663385,"longitude":3.134679},{"sector":"Automobile","name":"MERCEDES BENZ FRANCE ELC VALENCIENNES","street":"rue Louis duvant ","location":"Parc activité aérodrom \r\nZA Plateau d'Hérin ","postCode":"59316","city":"VALENCIENNES","phone":"03 27 51 81 00 ","website":"https://www.saga-mercedes-benz.com","type":"Entreprise","latitude":50.357655,"longitude":3.538696},{"sector":"Automobile","name":"MONTUPET  (LINAMAR LIGHT METAL CASTING)","street":"1 rue de Nogent ","postCode":"60290","city":"LAIGNEVILLE","phone":"03 44 74 20 00 ","website":"Www.montupet.fr","numbers":450,"type":"Entreprise","latitude":49.289683,"longitude":2.452028},{"sector":"Automobile","name":"MONTUPET (LINAMAR LIGHT METAL CASTING) CENTRE TECHNIQUE","street":"661 Rue de la République","postCode":"60290","city":"LAIGNEVILLE","phone":"03 44 71 04 53","website":"Www.montupet.fr","numbers":26,"type":"Entreprise","latitude":49.291205,"longitude":2.444679},{"sector":"Automobile","name":"MULTI-MECA","street":"rue André Durouchez ","postCode":"80000","city":"AMIENS","phone":"0 899 27 35 05 ","website":"http://www.multi-meca.fr","type":"Entreprise","latitude":49.926764,"longitude":2.286087},{"sector":"Automobile","name":"NORTENE TECHNOLOGIES","street":"13 Avenue de la Rotonde ","postCode":"59160","city":"LOMME","phone":"03 20 08 05 70 ","website":"https://www.intermasgroup.com","type":"Entreprise","latitude":50.640006,"longitude":3.000916},{"sector":"Automobile","name":"NOVARES FRANCE LENS","street":"rue des Poissonniers ","postCode":"62300","city":"LENS","website":"https://www.novaresteam.com","type":"Entreprise","latitude":50.454104,"longitude":2.826387},{"sector":"Automobile","name":"NOVARES LIBERCOURT","street":"9 avenue Blaise Pascal ","postCode":"62820 ","city":"LIBERCOURT","phone":"03 21 69 24 50 ","website":"https://www.novaresteam.com","type":"Entreprise","latitude":50.492901,"longitude":2.998192},{"sector":"Automobile","name":"NP NORD","street":"1 rue de bertry ","location":"ZAC de la valée d'hérie","postCode":"59540","city":"CAUDRY","phone":"03 27 85 11 25 ","website":"www.sintex-np.com","type":"Entreprise","latitude":50.120863,"longitude":3.403713},{"sector":"Automobile","name":"NS AUTO","street":"5002F rue du Champ de tir ","postCode":"59400","city":"CAMBRAI","phone":"03 27 81 21 43 ","numbers":7,"type":"Entreprise","latitude":50.173254,"longitude":3.210395},{"sector":"Automobile","name":"OGURA SAS","street":"Parc activités Valée Escaut","postCode":"59264","city":"ONNAING","phone":"03 27 28 56 00 ","website":"www.ogura-sas.fr","numbers":60,"description":"Ogura S.A.S. est un site de production de clutch pour système de climatisation automobile.","MÉTIERS":"Usinage","type":"Entreprise","latitude":50.369851,"longitude":3.615413},{"sector":"Automobile","name":"PARAPHE DESIGN","street":"ZI des Verniers ","postCode":"2600","city":"VILLERS-COTTERETS","phone":"03 23 96 44 66 ","type":"Entreprise","latitude":49.236462,"longitude":3.093283},{"sector":"Automobile","name":"PIREP","street":"1311 rue de Lillers","postCode":"62350","city":"BUSNES","phone":"03 21 64 51 50","website":"https://www.pirep.fr","type":"Entreprise","latitude":50.579482,"longitude":2.505787},{"sector":"Automobile","name":"PLASTIC OMNIUM AUTO EXTERIEUR (Amiens)","street":"rue de la Croix de Pierre ","postCode":"80080","city":"AMIENS","phone":"03 22 54 63 00 ","website":"https://www.plasticomnium.com","numbers":210,"type":"Entreprise","latitude":49.939043,"longitude":2.265751},{"sector":"Automobile","name":"PLASTIC OMNIUM AUTO EXTERIEUR (RUITZ)","street":"5001F rue d'Haillicourt","postCode":"62620","city":"RUITZ","phone":"03 21 63 04 30 ","website":"https://www.plasticomnium.com","type":"Entreprise","latitude":50.465523,"longitude":2.604802},{"sector":"Automobile","name":"PLASTIC OMNIUM CLEAN INERGY SYSTEM","street":"92 rue du Maréchal Leclerc","postCode":"60280","city":"VENETTE","phone":"03 44 90 34 56 ","website":"www.plasticomnium.com","type":"Entreprise","latitude":49.415275,"longitude":2.806965},{"sector":"Automobile","name":"PLASTIC OMNIUM COMPOSITES (FLERS)","street":"rue René Panhard","postCode":"59128","city":"FLERS-EN-ESCREBIEUX","phone":"03 27 95 64 64 ","website":"www.plasticomnium.com","type":"Entreprise","latitude":50.403547,"longitude":3.067363},{"sector":"Automobile","name":"PLASTIUM","street":"130 rue d'Houchin ","postCode":"62620","city":"RUITZ","phone":"03 21 62 82 13","website":"http://www.plastium.fr","type":"Entreprise","latitude":50.472227,"longitude":2.598867},{"sector":"Automobile","name":"POCLAIN Powertrain","street":"Route de compiègne","postCode":"60410","city":"VERBERIE","phone":"03 44 40 77 77 ","website":"www.poclain-powertrain.com","type":"Entreprise","latitude":49.323142,"longitude":2.747908},{"sector":"Automobile","name":"POINT FORT CONSEIL","street":"3 Bis Cours de Verdun ","postCode":"62000","city":"ARRAS","phone":"03 21 51 74 54 ","website":"www.point-fort.com","type":"Entreprise","latitude":50.289795,"longitude":2.768355},{"sector":"Automobile","name":"PROMATEC","street":"38 rue des Hallots","postCode":"62620","city":"RUITZ","phone":"03 21 53 00 16","website":"www.promatec.fr","type":"Entreprise","latitude":50.472744,"longitude":2.597371},{"sector":"Automobile","name":"PROMOUV","street":"33 rue du bloc ","postCode":"62000","city":"ARRAS","phone":"03 21 07 82 83 ","website":"http://promouv.fr","type":"Entreprise","latitude":50.29413,"longitude":2.771233},{"sector":"Automobile","name":"PSA GROUPE - Site d'HORDAIN","street":"Avenue d'Ile de France","postCode":"59111","city":"LIEU-SAINT-AMAND","phone":"03 27 22 60 00","website":"https://www.groupe-psa.com","numbers":2500,"description":"Le site d’Hordain (Sevelnord) est dédié à la fabrication de Véhicules Utilitaires Légers et de Véhicules de transport de Personnes (VP) jusqu’à 8 places, pour les marques Peugeot, Citroën, Opel, Vauxhall et Toyota.","MÉTIERS":"Usinage\r\nAssemblage","type":"Entreprise","latitude":50.267349,"longitude":3.331908},{"sector":"Automobile","name":"PSA GROUPE - Site de Valenciennes","street":"\r\nAvenue Marc Lefranc","location":"Parc d’activités de l’Aérodrome","postCode":59125,"city":"TRITH-SAINT-LEGER","phone":"03 27 09 40 40","website":"https://www.groupe-psa.com","numbers":2500,"description":"Créé en 1980, le site de Valenciennes de PSA Peugeot Citroën est spécialisé dans la fabrication de boîtes de vitesses manuelles, automatiques et pilotées.","MÉTIERS":"Constructeur\r\nAssemblage","type":"Entreprise","latitude":50.333258,"longitude":3.464805},{"sector":"Automobile","name":"PSA GROUPE Site de Douvrin","street":"900 avenue de Paris ","postCode":"62138","city":"DOUVRIN","phone":"03 21 08 22 22 ","website":"https://www.groupe-psa.com","type":"Entreprise","latitude":50.523894,"longitude":2.831089},{"sector":"Automobile","name":"QUENTINPLAST SA","street":"rue Zone Industrielle ","postCode":"02100","city":"MORCOURT","phone":"03 23 05 73 10 ","website":"https://www.le-site-de.com/quentinplast-sa-morcourt_3051.html","numbers":25,"type":"Entreprise","latitude":49.870517,"longitude":3.327518},{"sector":"Automobile","name":"R3D","street":"1 rue Léon Blum ","location":"11/19-Bât, ","postCode":"62300","city":"LENS","phone":"06 01 68 10 12","website":"https://r3d-maker.fr","type":"Entreprise","latitude":50.442588,"longitude":2.802353},{"sector":"Automobile","name":"RENAULT - SOCIETE DE TRANSMISSIONS AUTOMATIQUES -STA","street":"155 rue de Hochin ","postCode":"62620","city":"RUITZ","website":"https://group.renault.com","numbers":468,"type":"Entreprise","latitude":50.472252,"longitude":2.59744},{"sector":"Automobile","name":"RENAULT DOUAI SAS - USINE GEORGES BESSE","street":"1 rue de Cambrai","postCode":"59500","city":"DOUAI","phone":"03 27 93 84 84 ","website":"https://group.renault.com","numbers":3200,"description":"Depuis près de 50 ans, l'usine Renault de Douai (Hauts de France) a fabriqué plus de 10 millions de véhicules. A partir de 2021, l'usine fabriquera des véhicules électriques. Le site fabrique les Renault Espace, Talisman, Scénic et l’usine prépare sa transformation pour fabriquer les futurs véhicules électriques du Groupe Renault.","MÉTIERS":"Constructeur\r\nEmboutissage\r\nAssemblage","type":"Entreprise","latitude":50.362583,"longitude":3.078574},{"sector":"Automobile","name":"RMR-Réalisation Mécanique Rectification","street":"315 boulevard S. ","postCode":"62092","city":"HAISNES","phone":"03 21 08 83 00","website":"http://www.rmr-industries.com","numbers":22,"description":"Etudes techniques, Mécaniques de précision, maintenance industrielle et ventes de logiciels CAO Autodesk","type":"Entreprise","latitude":50.276113,"longitude":2.492237},{"sector":"Automobile","name":"ROBERT BOSCH France SAS","postCode":"02160","city":"JUVINCOURT-ET-DAMARY","phone":"03 23 25 12 00 ","website":"https://www.bosch.fr/","numbers":21,"type":"Entreprise","latitude":49.443672,"longitude":3.897982},{"sector":"Automobile","name":"ROLIDE","street":"222 rue de Lille ","postCode":"59223","city":"RONCQ","phone":"07 68 97 89 75 ","website":"www.rolide.com","numbers":12,"type":"Entreprise","latitude":50.747736,"longitude":3.119471},{"sector":"Automobile","name":"SACI","street":"15 rue du grand champs ","location":"zone d'acivité actipole de l'A2","postCode":"59554","city":"RAILLENCOURT-SAINTE-OLLE","phone":"03 27 73 96 07","website":"https://www.saci-industries.com","type":"Entreprise","latitude":50.18489,"longitude":3.190599},{"sector":"Automobile","name":"SAFE DEMO","street":"281 rue Isaac Newton ","postCode":"60230","city":"CHAMBLY","phone":"01 30 28 96 00 ","website":"www.safe-industry.com","numbers":163,"type":"Entreprise","latitude":49.155819,"longitude":2.248703},{"sector":"Automobile","name":"SAINT-GOBAIN SEKURIT","street":"249 Boulevard Drion ","postCode":"59586","city":"ANICHE","phone":"03 27 93 42 40 ","website":"https://www.saint-gobain-sekurit.com","type":"Entreprise","latitude":50.318863,"longitude":3.261127},{"sector":"Automobile","name":"SANOH EUROPE EURL","street":"Parc d'activité de la vallée de l'Escaut","location":"Bâtiment C ","postCode":"59264","city":"ONNAING","phone":"03 27 09 02 09","website":"www.sahoh.com","numbers":21,"description":"Sanoh conçoit et réalise des tubes métalliques conducteurs de fluide pour tous les constructeurs automobiles mondiaux. Principal fournisseur pour les clients Nissan, Toyota, Honda, Suzuki, Sanoh se développe sur tous les continents, et en particulier en Europe.","MÉTIERS":"Assemblage\r\nCintrage","type":"Entreprise","latitude":50.369851,"longitude":3.615413},{"sector":"Automobile","name":"SEALOCK","street":"53 rue de Marais ","postCode":"62430","city":"SALLAUMINES","phone":"03 21 78 60 60 ","website":"www.sealock.fr","numbers":25,"description":"Fabricant de colles industrielles","type":"Entreprise","latitude":50.428905,"longitude":2.857092},{"sector":"Automobile","name":"SECMA","street":"35 rue Denfert Rochereau ","postCode":"59580","city":"ANICHE","phone":"03 27 92 46 46 ","website":"http://www.secma-performance.fr","numbers":19,"description":"SECMA est une entreprise familiale spécialisée dans la conception, la réalisation, l’homologation, la fabrication et la commercialisation de véhicules de loisirs, thermiques ou électriques.","MÉTIERS":"Constructeur\r\nUsinage\r\nThermoformage/\r\nmoussage","type":"Entreprise","latitude":50.325518,"longitude":3.246076},{"sector":"Automobile","name":"SEYFERT LIBERCOURT","street":"6 rue de l'égalité ","postCode":"62820","city":"LIBERCOURT","phone":"03 21 08 87 87 ","website":"www.seyfert.fr","type":"Entreprise","latitude":50.487834,"longitude":3.013461},{"sector":"Automobile","name":"SFAM - SOCIETE DE FABRICATION D'ARTICLES METALLIQUES","street":"2 rue François Arago ","postCode":"59933","city":"LA CHAPELLE-D'ARMENTIERES","phone":"03 20 77 45 39 ","website":"www.sfam.com","type":"Entreprise","latitude":50.655435,"longitude":2.903945},{"sector":"Automobile","name":"SIF - Société Industrielle des Fontes","street":"Allée Saint-Lazarre ","postCode":"02106","city":"SAINT-QUENTIN","phone":"03 23 50 69 69 ","numbers":74,"type":"Entreprise","latitude":49.832631,"longitude":3.299651},{"sector":"Aéronautique, Automobile, Ferroviaire","name":"CREPIM","street":"Rue Christophe Colomb","location":"Parc d'Activités de la Porte Nord","postCode":"62700","city":"BRUAY-LA-BUISSIERE","phone":"03 21 61 64 00","website":"www.crepim.fr","numbers":21,"description":"Le CREPIM développe, teste et certifie des formulations résistantes au feu pour les entreprises travaillant dans les secteurs des transports de masse (ferroviaire, aviation et\r\nnaval), du bâtiment, de l’électricité et du textile.","type":"Entreprise","latitude":50.49524,"longitude":2.574855},{"sector":"Automobile","name":"SIMOLDES PLASTICOS","street":"Parc de l'Echangeur","location":"ZI n°9 ","postCode":"59264","city":"ONNAING","website":"http://www.simoldes.com/plastics/spfrance.html","numbers":230,"description":"Simoldes Plasticos France (SPF) est une unité de production du groupe Simoldes, spécialisé dans a fabrication d’outillages et l’injection de pièces plastiques, principalement pour l’industrie automobile.","MÉTIERS":"Injection extrusion\r\nAssemblage\r\nMoules et outillage","type":"Entreprise","latitude":50.369851,"longitude":3.615413},{"sector":"Automobile","name":"SMIT (Société Mécanique Industrielle et Technique)","street":"9 boulevard du 32E Régiment d'Infanterie ","postCode":"02700","city":"CONDREN","phone":"03 23 57 11 82 ","website":"http://www.smit02.fr","numbers":28,"type":"Entreprise","latitude":49.644221,"longitude":3.285211},{"sector":"Automobile","name":"SMRC AUTOMOTIVE FRANCE SAS","street":"87 rue Léon Duhamel ","postCode":"62440","city":"HARNES","phone":"03 21 13 90 00","website":"http://www.smrc-automotive.com","type":"Entreprise","latitude":50.452227,"longitude":2.912863},{"sector":"Automobile","name":"SMRC GONDECOURT","street":"37 rue Jean Baptiste Marquant ","postCode":"59147","city":"GONDECOURT","phone":"03 20 62 50 50","website":"http://www.smrc-automotive.com","numbers":392,"type":"Entreprise","latitude":50.537903,"longitude":2.988292},{"sector":"Automobile","name":"SNWM - SOCIETE NOUVELLE WN","street":"194 boulevard Faidherbe","postCode":"59500","city":"DOUAI","phone":"03 27 93 39 39 ","website":"http://www.smrc-automotive.com","numbers":400,"description":"L'entreprise est spécialisée dans la fabrication par emboutissage et assemblage par soudure, de sous-ensembles de la « caisse en blanc » pour l’industrie automobile Européenne.","MÉTIERS":"Emboutissage\r\nTraitement de surface","type":"Entreprise","latitude":50.367086,"longitude":3.088022},{"sector":"Automobile","name":"SOFICOR MÄDER","street":"60 avenue Halley ","location":"Parc de la Haute Borne ","postCode":"59000","city":"LILLE","phone":"03 20 12 79 50 ","numbers":675,"type":"Entreprise","latitude":50.62485,"longitude":3.038568},{"sector":"Automobile","name":"SOPAVAL","street":"Rue Antoine Laurent Lavoisier","postCode":"59770","city":"MARLY","phone":"03 27 21 13 40","website":"www.sopemea.fr","numbers":9,"type":"Entreprise","latitude":50.343821,"longitude":3.56485},{"sector":"Automobile","name":"SPAC","street":"638 rue de Gamand ","postCode":"59810","city":"LESQUIN","phone":"03 20 85 25 85 ","website":"https://www.spac.fr","numbers":47,"type":"Entreprise","latitude":50.580864,"longitude":3.121417},{"sector":"Automobile","name":"STEALING STOP","street":"180 rue Joseph-Louis Lagrange","location":"Technopôle Transalley","postCode":"59313","city":"VALENCIENNES","type":"Entreprise","latitude":50.319464,"longitude":3.509921},{"sector":"Automobile","name":"SYNOVA NORD","street":"rue Lavoisier ","postCode":"62290","city":"NOEUX-LES-MINES","phone":"03 21 65 41 69","numbers":3,"type":"Entreprise","latitude":50.48715,"longitude":2.67262},{"sector":"Automobile","name":"TDR GROUPE - Technics Developpement robotique","street":"29 rue de la Gaillette ","location":"ZI Bonnel ","postCode":"59167","city":"LALLAING","phone":"03 27 96 78 75","website":"https://www.tdrgroupe.fr","numbers":20,"type":"Entreprise","latitude":50.379525,"longitude":3.16403},{"sector":"Automobile","name":"TECHNOVATIS","street":"8 allée de la Clairière ","postCode":59136,"city":"WAVRIN","website":"http://www.technovatis.com","numbers":7,"type":"Entreprise","latitude":50.554957,"longitude":2.92341},{"sector":"Automobile","name":"TESSERACT SOLUTION SAS","street":"6 Avenue Archimède ","postCode":"02100","city":"SAINT QUENTIN","phone":"03 23 04 11 32 ","website":"https://www.tesseract-solutions.fr","numbers":3,"type":"Entreprise","latitude":49.856547,"longitude":3.265477},{"sector":"Automobile","name":"THERMAL PRODUCTS France","street":"206 rue de l'Equipée","postCode":"60640","city":"GUISCARD","phone":"03 44 43 55 55","numbers":186,"type":"Entreprise","latitude":49.658924,"longitude":3.053417},{"sector":"Automobile","name":"TIAMAT","street":"15 rue Baudelocque ","postCode":"80000","city":"AMIENS","phone":"03 27 23 12 73","website":"http://www.tiamat-energy.com","numbers":11,"type":"Entreprise","latitude":49.899563,"longitude":2.29991},{"sector":"Automobile","name":"TMF operating","street":"Avenue Georges Lainé ","postCode":"59264","city":"ONNAING","website":"http://www.tmf-operating.com/","type":"Entreprise","latitude":50.379056,"longitude":3.612638},{"sector":"Automobile","name":"TOYOTA BOSHOKU SOMAIN","street":"270 rue Pierre Lescot ","postCode":"59490","city":"SOMAIN","phone":"03 27 93 37 00 ","website":"https://www.toyota.fr","numbers":300,"type":"Entreprise","latitude":50.345037,"longitude":3.275291},{"sector":"Automobile","name":"TOYOTA MOTOR MANUFACTURING (TMMF) France","street":"Avenue Georges Lainé ","location":"Parc d'Activités de la Valée de l'Escaut","postCode":"59264","city":"ONNAING","website":"https://www.toyota.fr","numbers":4000,"description":"Entièrement dédié à la fabrication de la Yaris et de la Yaris hybride, le site dispose de 4 ateliers, les presses, la carrosserie, la peinture et l’assemblage. TMMF assure également la production des planches de bord et des pare-chocs réalisée dans un atelier plastique intégré au site.","MÉTIERS":"Constructeur","type":"Entreprise","latitude":50.379056,"longitude":3.612638},{"sector":"Automobile","name":"TOYOTA TSUSHO","street":"Parc d'activité de la vallée de l'Escaut","location":"ZI n°9 Ouest ","postCode":"59264","city":"ONNAING","phone":"03 61 10 60 24","website":"https://www.toyota.fr","numbers":86,"description":"L'entreprise offre des services clés en mains : de l’approvisionnement d’acier sous toutes ses formes, à la logistique de production (dépotage container, contrôle qualité, assemblage de pièces, reconditionnement, préparation de commandes) et la logistique de distribution en passant par la fabrication et la maintenance industrielle...","type":"Entreprise","latitude":50.369851,"longitude":3.615413},{"sector":"Automobile","name":"TOYOTOMI EUROPE","street":"Parc d'activité de la vallée de l'Escaut","postCode":"59264","city":"ONNAING","phone":"03 27 33 08 69","website":"https://www.toyotomieurope.com","numbers":150,"description":"Toyotomi, implanté en France depuis 2006, possède deux activités distinctes dans la production de pièces de carrosserie pour l’automobile : la production de pièces de rechange de petits lots en juste à temps, basée sur des process d’emboutissage, de soudure de composants et de peinture par cataphorèse et la production de pièce de série.","MÉTIERS":"Emboutissage","type":"Entreprise","latitude":50.369851,"longitude":3.615413},{"sector":"Automobile","name":"TREMOIS","street":"2 Rue Jean Monnet","postCode":"59360","city":"LE CATEAU-CAMBRESIS","phone":"03 27 77 03 65 ","numbers":143,"description":"TRÉMOIS est un quipementier automobile spécialisé en garnissage intérieur.","MÉTIERS":"Thermoformage/\r\nmoussage\r\nTextile/moquette\r\nAssemblage","type":"Entreprise","latitude":50.091491,"longitude":3.532639},{"sector":"Automobile","name":"Trottinettes Simone","street":"180 rue Joseph-Louis Lagrange","location":"Technopôle Transalley","postCode":"59300","city":"FAMARS","phone":"06 69 16 23 21","website":"https://trottinettes-simone.com/","numbers":2,"type":"Entreprise","latitude":50.319464,"longitude":3.509921},{"sector":"Automobile","name":"UM CORPORATION","street":"26B Rue Pasteur","postCode":"62118","city":"BIACHE-SAINT-VAAST","numbers":100,"description":"Le site de production regroupe les secteurs de l’Emboutissage et du Ferrage, dans la fabrication des pièces de structure et hyper-structure.","MÉTIERS":"Emboutissage, ferrage, assemblage","type":"Entreprise","latitude":50.315064,"longitude":2.945024},{"sector":"Automobile","name":"VALEO","street":"route de Montreuil\r\n","postCode":62630,"city":"ETAPLES","website":"www.valeo.com","numbers":1100,"description":"L’entité, organisée industriellement en cinq unités autonomes de production dont une d’assemblage, est dédiée au développement, à la fabrication d’alternateurs et de produits micro-hybrides, avec une production intégrant des composants électriques, électroniques et mécaniques.","MÉTIERS":"Electricité/électronique\r\nAssemblage\r\nEtudes, ingénierie, essais","type":"Entreprise","latitude":50.513682,"longitude":1.639845},{"sector":"Automobile","name":"VALEO EMBRAYAGES - CEPN","street":"81 Avenue Roger Dumoulin ","postCode":"80009","city":"AMIENS","phone":"03 22 67 42 22 ","website":"https://www.valeoservice.fr","numbers":1800,"type":"Entreprise","latitude":49.938309,"longitude":2.2824},{"sector":"Automobile","name":"VERTUS","street":"340 Avenue de la Marne","postCode":"59700","city":"MARCQ-EN-BAROEUL","phone":"03 20 26 29 59","numbers":2,"type":"Entreprise","latitude":50.666988,"longitude":3.103315},{"sector":"Automobile","name":"VOTAT","street":"24 rue d'Halatte","postCode":"60723","city":"PONT-SAINTE-MAXENCE","phone":"03 44 72 21 46","website":"https://www.votat.fr","numbers":36,"type":"Entreprise","latitude":49.293385,"longitude":2.606669},{"sector":"Automobile","name":"WECOSTA","street":"44 rue d'Avelghem ","postCode":"59800","city":"ROUBAIX","phone":"03 20 89 67 67 ","website":"www.wtxautomotive.com","type":"Entreprise","latitude":50.694714,"longitude":3.193573},{"sector":"Automobile","name":"WEVISTA","street":"44 rue d'Avelghem ","postCode":"59059","city":"ROUBAIX","phone":"03 20 89 67 67 ","website":"http://www.wtxautomotive.com","type":"Entreprise","latitude":50.694714,"longitude":3.193573},{"sector":"Automobile","name":"WN FACTORY","street":"31 avenue de la Gare ","postCode":"80000","city":"AMIENS","phone":"03 22 54 52 11 ","website":"http://www.wnfactory.fr","numbers":189,"type":"Entreprise","latitude":49.909571,"longitude":2.263841},{"sector":"Automobile","name":"WTX Automotive Group","street":"44 rue d'Avelghem ","postCode":"59058","city":"ROUBAIX","phone":"03 20 89 67 67 ","website":"www.wtxautomotive.com","description":"Ses activités sont la conception et la fabrication de conduits pour le transfert de fluides autour du moteur. Une division métallique nommée WEVISTA est spécialisée dans les conduits en inox et en acier. Ceux-ci ont pour application le transport de gaz d’échappement, d’air, d’eau, d’huile ou de carburant.","MÉTIERS":"Conception et fabrication\r\nde conduits métalliques\r\net plastiques","type":"Entreprise","latitude":50.694714,"longitude":3.193573},{"sector":"Aéronautique","name":"ACHP( ATELIER DE CONSTRUCTION HYDRAULIQUE PICARDIE)","street":"20 rue Hurtu","postCode":80300,"city":"ALBERT","phone":"03 22 75 17 10","website":"http://www.achp.fr/","description":"Spécialisation dans la conception et la réalisation de vérins et centrales hydrauliques","type":"Entreprise","latitude":50.007225,"longitude":2.651701},{"sector":"Aéronautique","name":"AEROPORT D'ALBERT-PICARDIE (RAAP)","street":"1 rue Henry Potez","postCode":80300,"city":"MEAULTE FRANCE","phone":"03 22 74 38 10","website":"https://www.aeroportalbertpicardie.com","description":"Plus grand aéroport d'affaires au Nord de Paris, il réunit les activités de vols d'affaires, vols diplomatiques, vols médicalisés, transports d'équipes sportives…","MÉTIERS":"transport\r\nfret","type":"Entreprise","latitude":49.973814,"longitude":2.697672},{"sector":"Aéronautique","name":"AIRFOILS ADVANCED SOLUTIONS","street":"35 rue de l'Epau ","location":"Z.A. de Sars et Rosières","postCode":59230,"city":"ROSULT","website":"https://www.safran-aircraft-engines.com/fr/societe/airfoils-advanced-solutions","description":"Airfoils Advanced Solutions est une société  dédiée à la réparation d’aubes de compresseur haute-pression de moteurs d’avions de ligne.","type":"Entreprise","latitude":50.44155,"longitude":3.350975},{"sector":"Aéronautique","name":"ASCODERO PRODUCTIQUE","street":"ZA route d'Etinehem","postCode":80340,"city":"Bray-sur-Somme","phone":"03 22 76 76 76","website":"https://www.ascodero.fr/","description":"Concepteur d’automation et fabricant de machines spéciales","type":"Entreprise","latitude":49.940188,"longitude":2.707798},{"sector":"Aéronautique","name":"AUEM","street":"Parc d’activités de la vallée de l’écaillon","postCode":59224,"city":"THIANT","phone":"03 27 31 00 22","website":"http://www.auem.fr","description":"AUEM est un laboratoire spécialisé dans la conduite de tests et d’essais mécaniques à destination d’industriels utilisant des matériaux tels que l’acier, le fer, la fonte, l’inox…","MÉTIERS":"test\r\ningénierie","type":"Entreprise","latitude":50.306081,"longitude":3.463428},{"sector":"Aéronautique","name":"BETRANCOURT SAS","street":"16 rue de l’industrie","postCode":80300,"city":" ALBERT","phone":"03 22 75 09 55","website":"https://www.betrancourt.fr","type":"Entreprise","latitude":50.000182,"longitude":2.635858},{"sector":"Aéronautique","name":"BLONDEL AEROLOGISTIQUE","street":"ZI de Morcourt","postCode":"02100","city":"SAINT QUENTIN","phone":"03 23 05 77 77","website":"https://www.groupe-blondel.com/","type":"Entreprise","latitude":49.870517,"longitude":3.327518},{"sector":"Aéronautique","name":"BLONDEL ETS","street":"6 rue de Senlis","postCode":80300,"city":"MILLENCOURT","phone":"03 22 75 26 31","website":"http://www.blondel-usinage.com","type":"Entreprise","latitude":50.001814,"longitude":2.586502},{"sector":"Aéronautique","name":"DERICHEBOURG Evolution Formation","street":"11 rue de la place ","postCode":80390,"city":"SAUCOURT","phone":"03 22 20 74 40","website":"https://www.decayeuxsti.com/","type":"Entreprise","latitude":50.097445,"longitude":1.59091},{"sector":"Aéronautique","name":"DE REU","street":"1 rue de l'égalité ","postCode":62121,"city":"ACHIET LE GRAND","phone":"03 21 07 15 33","website":"https://www.decolletage-de-reu.com/","type":"Entreprise","latitude":50.132542,"longitude":2.779883},{"sector":"Aéronautique","name":"DESAILLY","street":"Rue de l’avenir","location":"Zone Artisanale","postCode":80300,"city":"BOUZINCOURT","phone":"03 22 75 42 58","website":"http://www.desailly-usinage.com/","type":"Entreprise","latitude":50.02327,"longitude":2.61787},{"sector":"Aéronautique","name":"DUPUIS MECANIQUE","street":"Rue du président Coty","location":"Z.I.B BP 2 ","postCode":62232,"city":"ANNEZIN ","phone":"03 21 56 27 99","website":"https://www.dupuis-mecanique.com","type":"Entreprise","latitude":50.533919,"longitude":2.602426},{"sector":"Aéronautique","name":"E@II","street":"7 rue Henri POTEZ","location":"Z.I. POTEZ","postCode":80300,"city":"ALBERT","phone":" 03 22 64 01 75","website":"http://www.eaii.fr","type":"Entreprise","latitude":50.010891,"longitude":2.670196},{"sector":"Aéronautique","name":"ELISA Aerospace Hauts de France","street":"48 rue Raspail","postCode":"02100","city":"SAINT QUENTIN","phone":"03 23 68 06 11","website":"http://www.elisa-aerospace.fr/","type":"Entreprise","latitude":49.849416,"longitude":3.28707},{"sector":"Aéronautique","name":"FAVI ","street":"14 rue Louis Deneux ","postCode":80490,"city":"HALLENCOURT","phone":"03 22 28 20 70","website":"http://www.favi.com","type":"Entreprise","latitude":49.994976,"longitude":1.882071},{"sector":"Aéronautique","name":"FIGEAC AERO PICARDIE","street":"Rue Maryse Bastie","postCode":80300,"city":"MEAULTE FRANCE","website":"https://www.figeac-aero.com","type":"Entreprise","latitude":49.979134,"longitude":2.683249},{"sector":"Aéronautique","name":"FINOSTA","street":"786 rue des Rassarts","postCode":59230,"city":"ROSULT","phone":"03 27 48 01 70","website":"https://www.finosta.com","type":"Entreprise","latitude":50.440446,"longitude":3.378948},{"sector":"Aéronautique","name":"FJ TRANSPORT","street":"41 Rue Roger Salengro","postCode":80300,"city":"ALBERT","phone":"06 95 48 95 02","type":"Entreprise","latitude":50.002308,"longitude":2.654981},{"sector":"Aéronautique","name":"FER","street":"13 rue du 8 Mai 1945","postCode":80300,"city":"FRICOURT ","phone":"03 22 75 11 98 ","website":"http://www.fricourt-environnement-recyclage.fr/","type":"Entreprise","latitude":49.995977,"longitude":2.706643},{"sector":"Aéronautique","name":"GMS","street":"Rue Nouvelle ","postCode":80400,"city":"EPPEVILLE","phone":"03 23 81 59 57","website":"http://www.gms-80.com","type":"Entreprise","latitude":49.738744,"longitude":3.040598},{"sector":"Aéronautique","name":"GRETA","street":"20 boulevard d’Alsace Lorraine\r\n","postCode":80023,"city":"AMIENS","phone":"0 800 00 90 60","website":"http://greta.ac-amiens.fr/","type":"Entreprise","latitude":49.892138,"longitude":2.307883},{"sector":"Aéronautique","name":"HP CONCEPT ","street":"Route de Millencourt","location":"ZI André Line","postCode":80300,"city":"ALBERT ","website":"http://www.gtmi-group.com/fr/hp-concept.html","type":"Entreprise","latitude":50.003706,"longitude":2.635789},{"sector":"Aéronautique","name":"HYDRO TECHMA ","street":"37 Avenue Charles Lomont ","postCode":80300,"city":"ALBERT","phone":"03 22 75 15 04","website":"http://hydro-techma.com/","type":"Entreprise","latitude":50.007511,"longitude":2.653036},{"sector":"Aéronautique","name":"INDUXIAL","street":"64 rue Hoche ","postCode":80300,"city":"ALBERT","phone":"03 22 64 00 32","website":"http://www.induxial.com","type":"Entreprise","latitude":50.004797,"longitude":2.651679},{"sector":"Aéronautique","name":"LES TRANSPORTS JOIGNEAUX","street":"36 rue Gustave Delory","postCode":59195,"city":"HERIN","phone":"03 27 28 76 50 ","website":"http://www.transports-joigneaux.fr/","type":"Entreprise","latitude":50.352381,"longitude":3.454775},{"sector":"Aéronautique","name":"LAMORY & WALD SN","street":"18 Avenue Archimède ","location":"ZAC du Bois de la Chocque","postCode":"02100","city":"SAINT QUENTIN","phone":"03 23 68 27 96","website":"www.lamorywald.com","type":"Entreprise","latitude":49.85265,"longitude":3.266878},{"sector":"Aéronautique","name":"MORDACQUE ENVIRONNEMENT","street":"P.A. Henri Potez 1","location":"Z.I","postCode":80300,"city":"ALBERT","phone":"03 22 75 03 89","website":"http://www.mordacque-environnement.com","type":"Entreprise","latitude":50.010403,"longitude":2.670524},{"sector":"Aéronautique","name":"PRODESS","street":"rue Jacques Messager","location":" Zone d'Activités n°2","postCode":59175,"city":"TEMPLEMARS","phone":"03 20 62 16 00 ","website":"http://www.prodess.com","type":"Entreprise","latitude":50.566995,"longitude":3.063022},{"sector":"Aéronautique","name":"RECAD INDUSTRIE","street":"134 Avenue du Général Leclerc","postCode":80300,"city":"ALBERT","phone":"03 22 75 36 47","website":"http://www.peinture-recad-industrie.fr","type":"Entreprise","latitude":49.998591,"longitude":2.63647},{"sector":"Aéronautique","name":"RAFAUT Valenciennes","street":"3 Avenue du Sénateur Girard","postCode":59300,"city":"VALENCIENNES","type":"Entreprise","latitude":50.361553,"longitude":3.517366},{"sector":"Aéronautique","name":"SACI","street":"180 rue Joseph-Louis Lagrange","location":"Technopôle Transalley","postCode":59300,"city":"FAMARS","phone":"03 27 73 96 07","website":"www.saci-industries.com","type":"Entreprise","latitude":50.319464,"longitude":3.509921},{"sector":"Aéronautique","name":"SEALICONE","street":"6 bis rue Henri Pollet","postCode":59560,"city":"COMINES","phone":"03 20 04 40 45 ","website":"http://www.sealicone.fr","type":"Entreprise","latitude":50.767135,"longitude":3.012609},{"sector":"Aéronautique","name":"SIMM80 INDUSTRIE","street":"171 rue NEUVE","postCode":80650,"city":"VIGNACOURT","phone":"03 22 95 77 01 ","website":"http://www.simm80-industrie.com/","type":"Entreprise","latitude":50.008167,"longitude":2.196548},{"sector":"Aéronautique","name":"\r\nSEGULA TECHNOLOGIES","street":"Avenue Henri Barbusse","postCode":59770,"city":"MARLY","phone":"03 27 38 11 21 ","website":"www.segulatechnologies.com/","type":"Entreprise","latitude":50.352331,"longitude":3.536555},{"sector":"Aéronautique","name":"SOMEPIC FINITION","street":"34 Rue André Lamarre","postCode":80300,"city":"ALBERT","phone":"03 22 74 85 18","website":"https://somepic-technologie.com/somepic-finition","type":"Entreprise","latitude":50.007246,"longitude":2.643292},{"sector":"Aéronautique","name":"SOMEPIC TECHNOLOGIIE","street":"Rue de l'Avenur","postCode":80300,"city":"BOUZINCOURT","phone":"03 22 75 11 66 ","website":"https://somepic-technologie.com/","type":"Entreprise","latitude":50.02327,"longitude":2.61787},{"sector":"Aéronautique","name":"SPECITUBES","street":"1402 Rue de Neufchâtel","location":" Hameau de Letoquoi","postCode":62830,"city":"SAMER","phone":"03 21 83 27 83","website":"https://leggettaerospace.com/specitubes/","type":"Entreprise","latitude":50.635776,"longitude":1.730639},{"sector":"Aéronautique","name":"STELIA AEROSPACE","street":"Route de Bray sur Somme","postCode":80300,"city":"MEAULTE ","phone":"03 22 64 30 00","website":"https://www.stelia-aerospace.com","type":"Entreprise","latitude":49.992509,"longitude":2.659503},{"sector":"Aéronautique","name":"STIM (GTMI)","street":"ZI André Liné","postCode":80300,"city":"ALBERT","phone":"03 22 74 46 90","website":"http://www.stim-industrie.com","type":"Entreprise","latitude":49.993504,"longitude":2.652882},{"sector":"Aéronautique","name":"SUMA AERO MECANIQUE","street":" Rue Henri POTEZ","location":"Parc d'activité n°2","postCode":80300,"city":"ALBERT","phone":"03 22 74 45 80","website":"http://suma-aero.com","type":"Entreprise","latitude":50.010403,"longitude":2.670524},{"sector":"Aéronautique","name":"SUPEC (GTMI)","street":"ZI André Liné","postCode":80300,"city":"ALBERT","phone":"03 22 74 46 90","website":"www.supec-industrie.com","type":"Entreprise","latitude":49.993504,"longitude":2.652882},{"sector":"Aéronautique","name":"XXL STRATEGIE LILLE","street":"135 rue du Faubourg de Roubaix ","postCode":59000,"city":"LILLE","phone":"03 22 90 29 90","website":"http://xxl-strategie.fr/","type":"Entreprise","latitude":50.642738,"longitude":3.089394},{"sector":"Aéronautique","name":"XXL STRATEGIE AMIENS","street":"59 Chaussée Jules Ferry","postCode":80000,"city":"AMIENS","phone":"03 22 90 29 90","website":"http://xxl-strategie.fr/","type":"Entreprise","latitude":49.883841,"longitude":2.32415},{"sector":"Ferroviaire","name":"ALSTOM","street":"rue Jacquard","location":"Parc d'Activités Lavoisier","postCode":"59494","city":"PETITE-FORET","phone":"03 27 14 18 00","website":"www.transport.alstom.com","description":"Alstom est un acteur historique du développement du Valenciennois, grâce à son site situé à Petite-Forêt. ll est par sa taille et son nombre de salariés, l’un des plus importants des 12 sites d’Alstom en France. Le site est spécialisé dans la conception, le développement, la fabrication et la validation des matériels ferroviaires : métros, tram-trains et trains à deux niveaux en version régionale et sub-urbaine. ","type":"Entreprise","latitude":50.382017,"longitude":3.476516},{"sector":"Ferroviaire","name":"USINAXE","street":"ZA Mendés France","location":"75-77 Boulevard Mendés France","postCode":59150,"city":"WATTRELOS","phone":"03 20 89 29 50","website":"http://www.usinaxe.fr/","description":"De la pièce unitaire de précision jusqu'aux séries de pièces complexes, l'entreprise usine tous types de métaux. Usinaxe conçoit et réalise des outillages de presses (moules et outils de découpe) depuis plus de 25 ans.","MÉTIERS":"Usinage\r\nMoules et outillage\r\nEtudes, ingénierie, essais","type":"Entreprise","latitude":50.693813,"longitude":3.209068},{"sector":"Ferroviaire","name":"ARBION MENUISERIE","street":"470 rue d'Hargnies","postCode":"59570","city":"AUDIGNIES","phone":"03 27 63 14 61","description":"Arbion est menuisier spécialiste de l’industrie ferroviaire depuis 1980 et s'appuie sur un outil de production flexible pouvant faire face à la série comme au prototypage.  \r\nLa société déploie son savoir-faire sur de multiples applications ferroviaires telles que les planchers (alu, pvc, bois), les panneaux de garnissage (alu, pvc, bois), l'habillage de rames.","type":"Entreprise","latitude":50.284998,"longitude":3.813998},{"sector":"Ferroviaire","name":"ATCR","street":"8 rue Chenu","postCode":"59272","city":"DON","phone":"03 20 86 60 40","description":"ATCR est une entreprise de maintenance ferroviaire, de réparation de machines et d'équipements\r\nmécaniques.","type":"Entreprise","latitude":50.547353,"longitude":2.914236},{"sector":"Ferroviaire","name":"AUXITEC","street":"Avenue Georges Clémenceau","postCode":"59680","city":"FERRIERE-LA-GRANDE","phone":"03 27 69 84 11","website":"www.auxitec.fr","description":"Auxitec assure la maîtrise d’oeuvre et la gestion globale des projets, depuis leur conception jusqu’à leur parfait achèvement.\r\nLa société apporte une expertise de haut niveau dans des domaines complémentaires, le bâtiment et le génie civil, l’industrie, les systèmes d’information.","type":"Entreprise","latitude":50.260156,"longitude":3.995086},{"sector":"Ferroviaire","name":"BARAT SOFANOR","street":"Place des Ateliers","location":"Zone Trans Avenir","postCode":"59154","city":"CRESPIN","phone":"03 27 22 76 00","website":"www.barat.com","description":"Barat Group est un équipementier reconnu mondialement pour l'Industrie du matériel roulant ferroviaire, spécialiste des fonctions de sécurité, d'aménagement intérieur et de design extérieur, à forte valeur ajoutée.\r\n","MÉTIERS":"Aménagement\r\ndesign","type":"Entreprise","latitude":50.407288,"longitude":3.663695},{"sector":"Ferroviaire","name":"BOMBARDIER TRANSPORT","street":"Place des Ateliers","postCode":"59154","city":"CRESPIN","phone":"03 27 23 53 00","website":"www.bombardier.com","description":"\r\nConstructeur ferroviaire, Bombardier offre la gamme entière des solutions de transport sur rail, depuis les trains complets jusqu’aux sous-systèmes, aux services d’entretien, à l’intégration des systèmes et à la signalisation.\r\n","type":"Entreprise","latitude":50.407288,"longitude":3.663695},{"sector":"Ferroviaire","name":"CENTRE D'ESSAIS FERROVIAIRE","street":"Rue Augustin Fresnel","location":"BP 9","postCode":"59494","city":"PETITE-FORET","phone":"03 27 32 30 25","website":"www.c-e-f.fr","description":"Le centre propose la location d’infrastructures et de services pour la réalisation d’activités d’essais, de maintenance ou de formation. Il dispose de deux plateformes d'essais ferroviaires et d'un laboratoire d’essais.","type":"Entreprise","latitude":50.383793,"longitude":3.471619},{"sector":"Ferroviaire","name":"CERTIFER","street":"18, rue Edmond Membrée ","postCode":59300,"city":"PETITE-FORET","phone":"03 27 28 35 00","website":"www.certifer.eu","description":"Certifer est un leader mondial de l’évaluation indépendante de produits et systèmes de transports ferroviaires et guidés urbains.\r\nCertifer réalise notamment des missions d’évaluation de la sécurité, de l’interopérabilité et de la conformité des métros, tramways, lignes et trains à grande vitesse, wagons-citernes et systèmes de contrôle commande signalisation.","type":"Entreprise","latitude":50.36077,"longitude":3.519526},{"sector":"Ferroviaire","name":"CLÔTURES SANIEZ","street":"20 rue de l'Abbaye","postCode":"59730","city":"SOLESMES","phone":"03 27 37 46 64","website":"www.clotures-saniez.com","numbers":250,"description":"Le Groupe Saniez propose depuis plus de 30 ans des solutions de clôtures et de portails tenant compte des exigences de sécurité, de garantie et d’esthétisme formulées par ses clients.\r\nLe groupe a participé dans son domaine à de nombreux grands chantiers d’infrastructures français de ses dernières années : TGV, autoroutes, prisons, aéroports…","type":"Entreprise","latitude":50.183107,"longitude":3.498045},{"sector":"Ferroviaire","name":"DECOLLETAGE DE REU","street":"1 rue de l'Egalité","postCode":"62121","city":"ACHIET LE GRAND","phone":"03 21 07 15 33","website":"www.decolletage-de-reu.com","numbers":25,"description":"L'entreprise fabrique des produits allant de Ø 0.25 mm à Ø 80 mm, de 1 à 5000 pièces, sur tous types de matières, pour tous types d’industries et cela depuis 1929.\r\n50 %  de son activité est à destination du ferroviaire et 10 % en direction de l'aéronautique.","type":"Entreprise","latitude":50.132542,"longitude":2.779883},{"sector":"Ferroviaire","name":"DEGAND MARQUAGE","street":"28D rue Jean Perrin","location":"ZI  Douai Dorignies","postCode":"59351","city":"DOUAI CEDEX","phone":"03 27 99 77 11","website":"www.degandmarquage.fr","description":"Degand Marquage propose une large gamme de produits de marquage et de signalétique.","type":"Entreprise","latitude":50.39276,"longitude":3.096127},{"sector":"Ferroviaire","name":"DEPRECQ","street":"Zone Industrielle du Bas Pré","location":"BP 205","postCode":"59590","city":"RAISMES","phone":"03 27 32 27 57","website":"www.deprecq.com","description":"Deprecq conçoit, industrialise et réalise des pièces complexes et d’aspect, à base de tôlerie fine et de mécano-soudure à destination du matériel roulant.","type":"Entreprise","latitude":50.394082,"longitude":3.468706},{"sector":"Ferroviaire","name":"DI INGENIERIE","street":"345 avenue Henri Barbusse","postCode":59583,"city":"Marly","phone":"03 27 30 57 00","website":"https://www.ateim.fr/","numbers":89,"description":"La société DI Ingénierie s'est développée en lien avec les industries du Nord dans les domaines techniques, des études produits et aussi le domaine ferroviaire.","type":"Entreprise","latitude":50.343321,"longitude":3.560329},{"sector":"Ferroviaire","name":"EIFFAGE RAIL","street":"Rue du 19 Mars 1962","postCode":"59581","city":"MARLY","phone":"03 27 21 49 30","website":"www.eiffage.com","description":"Eiffage Activité Rail est présente dans tous les domaines d’activités de la voie ferrée : renouvellement et régénération d’activité de la voie ferrée, installations terminales embranchées, construction de voies sur ballast, réalisation de ligne à grande vitesse, création de lignes de tramway...","type":"Entreprise","latitude":50.341328,"longitude":3.563958},{"sector":"Ferroviaire","name":"FAIVELEY TRANSPORT NSF","street":"1 rue de Reckkem","location":"Voie Nouvelle","postCode":59960,"city":"NEUVILLE EN FERRAIN","phone":"03 20 45 65 46","website":"www.faiveleytransport.com","numbers":100,"description":"Un des tout premiers équipementiers ferroviaires mondiaux, le site Faiveley Transport NSF à Neuville-en-Ferrain est à la fois un centre de conception et de fabrication climatisation, un centre de compétences Efficacité Energétique, un centre de compétences Services Attelages et un centre de services Climatisation et Attelages","type":"Entreprise","latitude":50.751411,"longitude":3.15276},{"sector":"Ferroviaire","name":"FOSLIN","street":"106 Rue de Famars","postCode":"59300","city":"VALENCIENNES","phone":"03 27 46 79 54","website":"www.foslin.fr","description":"Forts d’une expérience de plus de 30 ans dans le domaine de la gravure et de la signalétique industrielles, les Ateliers Foslin proposent aujourd’hui une large gamme de produits et de solutions adaptés à vos besoins en image et communication.","type":"Entreprise","latitude":50.353324,"longitude":3.522575},{"sector":"Ferroviaire","name":"INDUSTREAM","street":"127 rue du Berger","postCode":"59135","city":"BELLAING","phone":"03 27 35 54 77","numbers":1,"description":"Installée à Bellaing, elle est spécialisée dans le secteur d'activité du conseil pour les affaires et autres conseils de gestion.","type":"Entreprise","latitude":50.366404,"longitude":3.430435},{"sector":"Ferroviaire","name":"IRT RAILENIUM","street":"180 rue Joseph-Louis Lagrange","location":"Technopôle Transalley","postCode":59300,"city":"FAMARS","phone":"03 66 72 26 93","website":"http://railenium.eu/fr/","description":"Railenium, L’Institut de Recherche Technologique de la filière ferroviaire, met en œuvre des projets d’innovation en créant des partenariats entre industriels et académiques. Railenium a pour mission d’accompagner le développement de la filière ferroviaire face à deux défis de taille que constituent l’accélération du report modal et la concurrence des pays émergents.","type":"Entreprise","latitude":50.319464,"longitude":3.509921},{"sector":"Ferroviaire","name":"MAD","street":"247 rue de la Lys","postCode":"59253","city":"LA GORGUE","phone":"03 20 12 18 05","website":"www.madfrance.com","description":"Mad France travaille à la conception, la fabrication de réseaux de gaines de climatisation ou chauffage, mais aussi à la conception et la fabrication de pièces de tôlerie.","type":"Entreprise","latitude":50.641862,"longitude":2.737905},{"sector":"Ferroviaire","name":"MAINTENANCE INDUSTRIELLE VALENCIENNOIS - MIV","street":"363 Rue Jean Jaurès","postCode":"59860","city":"BRUAY-SUR-L'ESCAUT","phone":"03 27 41 32 95","description":"Entreprise spécialisée dans les travaux de maintenance industrielle, sa mission consiste à maintenir ou rétablir un système industriel en état ou conditions données de fonctionnement. La société intervient au niveau des circuits de distribution électrique, systèmes de transmissions, équipements hydrauliques et pneumatiques.","type":"Entreprise","latitude":50.397282,"longitude":3.539391},{"sector":"Ferroviaire","name":"MG VALDUNES","street":"rue Gustave Delory","postCode":"59125","city":"TRITH-SAINT-LÉGER","phone":"03 27 23 98 20","website":"www.valdunes.com","description":"La société MG-VALDUNES conçoit, fabrique et commercialise des produits à usage ferroviaire\r\n(roues, axes et essieux-montés).\r\nMG-VALDUNES dispose de deux sites de production, un à Leffrinckoucke (Dunkerque) regroupant\r\nla forge et les moyens de dégrossissage, un à Trith Saint Léger (Valenciennes) regroupant les\r\ninstallations de traitement thermique, un laboratoire d’essais mécaniques et métallurgiques, des\r\nmoyens d’usinage et d’inspection, des moyens d’assemblage des essieux-montés et un atelier de\r\nmaintenance.","type":"Entreprise","latitude":50.327908,"longitude":3.502814},{"sector":"Ferroviaire","name":"NEU  RAILWAYS","street":"70 rue du Collège","postCode":"59704","city":"MARCQ-EN-BAROEUL","phone":"03 20 45 64 64","website":"www.neu-railways.com","description":"NEU Railways conçoit, fournit et met en service des équipements de dépôts et des systèmes de nettoyage de voies et de tunnels.","type":"Entreprise","latitude":50.678144,"longitude":3.103575},{"sector":"Ferroviaire","name":"NIEDAX France","street":"404 Avenue de la Ferme du Roy","postCode":62400,"city":"BETHUNE","phone":"03 21 64 75 75","website":"http://www.niedax-group.com","description":"La société Niedax est spécialisée dans la conception et la production de systèmes de chemins de câbles métalliques (cheminement) et de supportage.","type":"Entreprise","latitude":50.536319,"longitude":2.649152},{"sector":"Ferroviaire","name":"ODICE","street":"rue Lavoisier","location":"ZAE les Dix Muids","postCode":"59770","city":"MARLY","phone":"03 27 19 32 32","website":"www.odice.com","description":"Odice travaille à la mise au point, la transformation et la fabrication de joints intumescents et d'isolants thermiques. Elle apporte son expertise dans le développement des solutions coupe-feu.","type":"Entreprise","latitude":50.343821,"longitude":3.56485},{"sector":"Ferroviaire","name":"OFFROY","street":"Rue de la Grévière","postCode":"02650","city":"MEZY-MOULINS","phone":"03 23 70 78 90","website":"www.offroy.fr","description":"Elle est spécialisée dans les travaux de construction, de maintenance et d’entretien de voies ferrées sur réseaux publics et privés (réseaux portuaires, installations terminales embranchées de site industriels.","type":"Entreprise","latitude":49.066084,"longitude":3.502917},{"sector":"Ferroviaire","name":"OUTREAU TECHNOLOGIES","street":"Rue Pierre Curie","location":"BP 119","postCode":"62230","city":"OUTREAU","phone":"03 21 99 53 00","website":"www.vossloh.com","numbers":250,"description":"Fonderie spécialisée dans la conception et la fabrication de tous types de cœurs de voies destinés aux infrastructures ferroviaires, elle travaille pour ses principaux clients tels que la SNCF, Infrabel, les Chemins de Fer Suisses, Italiens, Anglais, Israéliens, RATP, le métro de Santiago du Chili...","type":"Entreprise","latitude":50.68972,"longitude":1.603793},{"sector":"Ferroviaire","name":"PFS","street":"5 Rue de Rambouillet","postCode":"59400","city":"CAMBRAI","phone":"03 27 70 77 10","website":"www.tuyauterie-regulation-pfs.com","description":"PFS conçoit, réalise et assure l'intégration de systèmes complets de stockage, distribution, régulation et supervision de fluides et gaz spéciaux (gaz industriels, gaz purs, ultra-purs, liquides.........).","type":"Entreprise","latitude":50.188871,"longitude":3.244793},{"sector":"Ferroviaire","name":"INVEHO UAB","street":"Rue de Paris","postCode":"62121","city":"ACHIET-LE-GRAND","phone":"03 21 24 08 60","website":"http://www.inveho.eu/fr/nos-sites.html","description":"NVEHO UAB est depuis 1946 spécialisée dans la maintenance, la transformation et la réparation de wagons pour le fret ferroviaire.","type":"Entreprise","latitude":50.130561,"longitude":2.783347},{"sector":"Ferroviaire","name":"SC INDUSTRIES","street":"930 Rue Léo Lagrange","postCode":"59174","city":"LA SENTINELLE","phone":"03 27 21 23 00","website":"www.sc-industries.fr","description":"Sc Industries est spécialisé dans la chaudronnerie, la mécano soudure, la tuyauterie, la mécanique, l'électricité…","type":"Entreprise","latitude":50.345283,"longitude":3.477313},{"sector":"Ferroviaire","name":"SEG ( SOGEMA ENGINEERING)","street":"2 rue Raoul Follereau","location":"BP 60062","postCode":"59452","city":"LYS-LEZ-LANNOY","phone":"03 20 66 10 84","website":"www.sogema-engineering.com","description":"L'entreprise est reconnue comme un des leaders mondiaux dans la conception et la fabrication d’une gamme complète de biens d’équipement liés aux ateliers de maintenance ferroviaire et une grande spécialisation dans les organes roulants (essieu, bogie).","type":"Entreprise","latitude":50.672605,"longitude":3.231905},{"sector":"Ferroviaire","name":"SIDD (Société Industrielle de décapage et de détartrage)","street":"30 rue Henri Durre","location":"BP 2","postCode":"59590","city":"RAISMES","phone":"03 27 36 91 22","website":"www.decapage‐detartragepeinture‐raismes.fr","description":"La société travaille au dégraissage, décapage et la passivation des inox principalement pour le secteur ferroviaire (Alstom, Bombardier, SNCF).","type":"Entreprise","latitude":50.390742,"longitude":3.485845},{"sector":"Ferroviaire","name":"STEEL FORM","street":"12 rue du Fossé","postCode":"60480","city":"SAINT-ANDRE-FARIVILLERS","phone":"03 44 80 62 90","website":"www.steel-form.fr","description":"Steel form travaille à la conception, la fabrication, au montage, à la vente de construction métallique, et tôlerie industrielle et tous travaux s'y rapportant.","type":"Entreprise","latitude":49.58052,"longitude":2.320725},{"sector":"Ferroviaire","name":"STRATIFORME INDUSTRIES","street":"570 rue du Pavé","postCode":"59235","city":"BERSEE","phone":"03 20 84 90 10","website":"www.stratiforme.com","description":"Stratiforme conçoit et fabrique des pièces composites à partir de vos besoins fonctionnels ou plans détaillés, grâce à notre équipe engineering, projet, nos spécialistes process et notre laboratoire. ","type":"Entreprise","latitude":50.485154,"longitude":3.132884},{"sector":"Ferroviaire","name":"TECHNIFRANCE","street":"180 Rue Joseph-Louis Lagrange","location":"Technopole Transalley","postCode":"59308","city":"FAMARS","phone":"03 28 58 77 77","website":"www.technifrance.com","numbers":80,"description":"Technifrance est un bureau d'étude d'ingénierie, de calculs, d'assistance technique travaillant pour les secteurs Transport, Industrie et Energie.","type":"Entreprise","latitude":50.319464,"longitude":3.509921},{"sector":"Ferroviaire","name":"MILLET AFR","street":"140 rue du Paradis","postCode":"59500","city":"DOUAI","phone":"03 27 93 49 71","website":"https://www.millet-wagons.com/","numbers":175,"description":"Le groupe travaille à la conception et la fabrication de matériels ferroviaires fret et ingénierie.","type":"Entreprise","latitude":50.368193,"longitude":3.098439},{"sector":"Automobile, Ferroviaire","name":"ABYLSEN SIGMA NORD","street":"629 avenue de la République","postCode":"59000","city":"LILLE","phone":"03 28 36 31 79","website":"www.abylsen.com","description":"La vocation d’Abylsen est d'accompagner au mieux ses clients industriels et tertiaires sur leurs projets d’innovation, de R&D, de performance opérationnelle et de digital.","type":"Entreprise","latitude":50.640852,"longitude":3.018214},{"sector":"Automobile, Ferroviaire","name":"BODYCOTE","street":"134 Boulevard Sud","location":"Parc des Industries Artois-Flandres","postCode":"62138","city":"BILLY-BERCLAU","phone":"03 21 79 31 31 ","website":"www.bodycote.com/fr","description":"Le principal fournisseur de services de traitement thermique dans le monde\r\nLe traitement thermique inclut un grand nombre de techniques et de processus d’ingénierie spécialisés qui permettent d’améliorer les caractéristiques des métaux et alliages, tout en allongeant la durée de vie des composants ; il s’agit de l’une des étapes les plus importantes de n’importe quel processus de fabrication.","type":"Entreprise","latitude":50.51323,"longitude":2.85139},{"sector":"Automobile, Ferroviaire","name":"FRANCELOG","street":"Avenue Henri Poincaré","location":"ZA de Ravennes Les Francs","postCode":59910,"city":"BONDUES","phone":"03 20 11 52 00","website":"www.francelog.fr","description":"Francelog conçoit et réalise depuis plus de 35 ans des produits électroniques spécifiques dans le domaine industriel. ","type":"Entreprise","latitude":50.713852,"longitude":3.127355},{"sector":"Aéronautique, Ferroviaire","name":"MECAJET","street":"10 Rue Lambert","postCode":"59191","city":"LIGNY-EN-CAMBRESIS","phone":"03 27 76 55 00","website":"www.sa-mecajet.fr","numbers":45,"description":"La SAS MECAJET est spécialisée dans l’ingénierie, l’installation clefs en main, travaux neufs, machines spéciales, construction mécanique, mécano-soudure, appareils sous pression, usinage, équipements et matériels ferroviaire.","MÉTIERS":"Usinage\r\nAssemblage\r\nBiens d’équipement\r\nEtudes, ingénierie, essais\r\nPrestation de services","type":"Entreprise","latitude":50.099109,"longitude":3.38393},{"sector":"Automobile","name":"PAINT PRO","street":"14 Boulevard Marcel Cachin","postCode":"59860","city":"BRUAY-SUR-L'ESCAUT","phone":"03 27 29 92 87","website":"www.paintpro.fr","description":"Présente depuis 2005 à Bruay-sur-l’Escaut, la société dispose d’un espace de 6 500 m² pour accueillir les véhicules et proposer tous types de prestations de carrosserie.","type":"Entreprise","latitude":50.39495,"longitude":3.532518},{"sector":"Aéronautique, Ferroviaire","name":"DAHER TECHNOLOGIES","street":"Parc TransAvenir","location":"Bâtiment D","postCode":"59154","city":"CRESPIN","phone":"03 27 51 75 72","website":"www.daher.com","numbers":11,"description":"Contrôle de pièce, mise en praticable, stockage, livraison. Montage parebrise, collage, cablâge.","type":"Entreprise","latitude":50.414733,"longitude":3.658836},{"sector":"Aéronautique, Ferroviaire","name":"DUPUIS MECANIQUE","street":"Rue du Président COTY","location":"Zone Industrielle B","postCode":"62232","city":"ANNEZIN","phone":"03 21 56 27 99","website":"www.dupuis-mecanique.fr","description":"DUPUIS MECANIQUE, spécialiste de la pièce critique, s’est organisé pour répondre à vos besoins en mécanique générale de précision,","type":"Entreprise","latitude":50.533919,"longitude":2.602426},{"sector":"Aéronautique, Ferroviaire","name":"EOLANE","street":"Allée des Trois Lions","location":"Parc du Lion","postCode":59223,"city":"RONCQ ","phone":"03 20 48 47 47","website":"www.eolane.com","description":"Eolane accompagne ses clients aussi bien en R&D qu’en fabrication/intégration dans ses unités de production en France ou à l’étranger.\r\n","type":"Entreprise","latitude":50.744619,"longitude":3.133451},{"sector":"Aéronautique, Ferroviaire","name":"HIOLLE TECHNOLOGIES","street":"9 Avenue Marc LEFRANCQ","postCode":59121,"city":"PROUVY","phone":"03 27 48 33 00","website":"www.hiolle-technologies.fr","description":"Câblage d'équipements électriques pour le matériel roulant Ferroviaire (Harnais / Armoires / Pupitres)\r\nPrestations directement sur le site des clients (électrique / garnissage / mécanique / essais)","type":"Entreprise","latitude":50.332374,"longitude":3.458629},{"sector":"Automobile, Ferroviaire","name":"ADDEV MATERIALS","street":"601 Rue du Galibot","location":"Parc Bonnel","postCode":"59167","city":"LALLAING","phone":"03 27 94 32 32","website":"www.addevmaterials.com","numbers":29,"description":"ADDEV Materials est spécialisée dans la transformation de matériaux hautes performances. Ses valeurs ajoutées : Sourcing de matériaux parmi les plus grands chimistes mondiaux, préconisation adaptée à chaque client grâce à son expertise reconnue, transformation (adhésivage, lamination, enduction,...) et découpe sur-mesure.","type":"Entreprise","latitude":50.379397,"longitude":3.162128},{"sector":"Aéronautique, Automobile, Ferroviaire","name":"ALTEN","street":"4 rue de l'Horizon","location":"Parc Scientifique de le Haute Borne","postCode":"59650","city":"VILLENEUVE D'ASCQ","phone":"03 20 30 25 25","website":"www.alten.fr","numbers":300,"description":"ALTEN, leader européen de l’Ingénierie et du Conseil en Technologies, accompagne la stratégie de développement de ses clients dans les domaines de l’innovation, de la R&D et des systèmes d’information technologiques.\r\n","type":"Entreprise","latitude":50.606707,"longitude":3.153437},{"sector":"Aéronautique, Automobile, Ferroviaire","name":"ALTRAN","street":"360 rue Marc Lefrancq","location":"Les Ateliers Numériques","postCode":"59300","city":"VALENCIENNES","phone":"03 27 31 45 68","website":"www.altran.com","numbers":350,"description":"ALTRAN Technologies : société de conseils en Ingénierie pour l’ensemble des secteurs industriels.\r\nL'agence de Valenciennes travaille exclusivement  dans le domaine Ferroviaire.\r\nLes domainesd'intervention sont : la mécanique, l’électrique, le TCMS, ERTMS, la conformité aux exigences, la logistique, la qualité, les méthodes.\r\n","type":"Entreprise","latitude":50.366328,"longitude":3.529479},{"sector":"Aéronautique, Automobile, Ferroviaire","name":"ARTERAIL","street":"8 rue Anatole France","postCode":"59000","city":"LILLE","phone":"03 59 56 16 05","website":"www.arterail.com","numbers":24,"description":"ARTERAIL est un fournisseur de services d’expertise, d’ingénierie, et de réalisation liés à la vie du matériel roulant ferroviaire","type":"Entreprise","latitude":50.633628,"longitude":3.005712},{"sector":"Aéronautique, Automobile, Ferroviaire","name":"ELYSIS CONSULTING","street":"10 ter rue Louis Neel","location":"Synergie Park","postCode":"59260","city":"LEZENNES","phone":"03 20 59 50 50","website":"www.elysis.fr","numbers":70,"description":"ELYSIS est un cabinet d’ingénierie spécialisé dans le management de projets pour l’industrie. Il réalise des missions de conseil et d’assistance opérationnelle liées au pilotage et à la maitrise des aspects qualité, coûts et délais des projets d’ingénierie et des investissements industriels.","type":"Entreprise","latitude":50.60292,"longitude":3.135122},{"sector":"Aéronautique, Automobile, Ferroviaire","name":"EXPLEO","street":"180 rue Joseph-Louis Lagrange","location":"Technopôle Transalley","postCode":59300,"city":"FAMARS","phone":"03 27 20 08 10","website":"www.expleogroup.com","description":"Expleo propose une offre unique de services intégrés d'ingénierie, qualité et conseil stratégique pour la transformation digitale. ","type":"Entreprise","latitude":50.319464,"longitude":3.509921},{"sector":"Aéronautique, Automobile, Ferroviaire","name":"BEIMO REALISATION","street":"18 Rue du vert Bois","location":"ZI de Tourcoing Nord","postCode":"59960","city":"NEUVILLE-EN-FERRAIN","phone":"03 20 28 15 80","website":"www.beimo-cintrage-usinage.fr","numbers":16,"description":"Société de cintrage de profilés, tubes, rails, toutes sections et toutes matières, elle réalise la mise en forme des profils suivant besoin et plan fourni par le client.","type":"Entreprise","latitude":50.754967,"longitude":3.170162},{"sector":"Aéronautique, Automobile, Ferroviaire","name":"BORFLEX CAFAC-BAJOLET","street":"111 Rue  Saint-Luc","postCode":"59020","city":"LILLE","phone":"03 20 21 99 57","website":"www.borflex.fr","numbers":40,"description":"BORFLEX Cafac-Bajolet est une référence dans le secteur de l’étanchéité et des pièces élastomères produites en petites et moyennes séries.","type":"Entreprise","latitude":50.646877,"longitude":3.095176},{"sector":"Aéronautique, Automobile, Ferroviaire","name":"ENDEL ENGIE","street":"468 rue Michel Ange","location":"ZA de la Renaissance","postCode":"59490","city":"SOMAIN","phone":"03 27 08 66 00","website":"www.endel.fr","description":"La société ENDEL est spécialisée dans le domaine de la construction de grands équipements d’infrastructures, l'installation et la maîtrise d'un ensemble complet de compétences industrielles telles que l’ingénierie de maintenance et de réalisation, tuyauterie, soudage, chaudronnerie, électromécanique ou logistique ainsi que les compétences spécifiques tels que le contrôle non destructif, l’hydraulique, la lubrification ou la plasturgie....","type":"Entreprise","latitude":50.34074,"longitude":3.277962},{"sector":"Aéronautique, Automobile, Ferroviaire","name":"GETEC","street":"Rue des Planquettes","postCode":"62217","city":"ACHICOURT","phone":"03 21 22 23 24","website":"www.getec.fr","numbers":43,"description":"Getec travaille dans la tôlerie de précision et industrielle, les études, la mécanique, et la chaudronnerie. Elle propose à ses clients : tôlerie industrielle, études, industrialisation et fabrication d’ensembles mécano-soudés, traitement de surface...\r\n","type":"Entreprise","latitude":50.279758,"longitude":2.771895},{"sector":"Aéronautique, Automobile, Ferroviaire","name":"GROUPE MÄDER","street":"22/24 rue Anatole France","postCode":59000,"city":"LILLE","phone":"03 20 12 79 50","website":"www.mader-group.com","description":"Le groupe Mäder est le leader Européen de la peinture industrielle et des composites à contenu technologique. Leader Mondial dans le domaine ferroviaire, le groupe Mäder est également un acteur majeur dans la peinture pour les plastiques automobile et intervient dans des domaines de haute technologie comme l’aéronautique ou les éoliennes.","MÉTIERS":"Composite\r\nPeinture","type":"Entreprise","latitude":50.633974,"longitude":3.006566},{"sector":"Aéronautique, Automobile, Ferroviaire","name":"LA MECANIQUE DU CAMBRESIS","street":"13 Grand Rue - Niergnies","postCode":"59404","city":"CAMBRAI CEDEX","phone":"03 27 78 60 03","website":"www.papillonsblancsducambresis.org","description":"La mécanique du Cambrésis est spécialisée dans la production de petites et moyennes séries en mécanique générale, mécano soudure et chaudronnerie. Parmi ses clients : SNCF, Bombardier, ALSTOM, Titagarh, Sometom, Klein ou encore Geopro. ","type":"Entreprise","latitude":50.161894,"longitude":3.241795},{"sector":"Aéronautique, Automobile, Ferroviaire","name":"LEQUIEN","street":"550 Rue principale","postCode":"62140","city":"VACQUERIETTE-ERQUIERES","phone":"03 21 47 11 16","website":"www.lequien.fr","numbers":24,"description":"\r\nLEQUIEN industrialise et fabrique des ensembles et sous-ensembles complexes composés de pièces critiques ou non en petites et moyennes séries de pièces renouvelables.\r\nSon savoir-faire industriel, sa technologie de pointe et son expertise notamment dans le domaine de la soudure lui permettent de réaliser des projets majeurs dans de nombreux domaines et secteurs d’activité.","type":"Entreprise","latitude":50.319968,"longitude":2.079777},{"sector":"Aéronautique, Automobile, Ferroviaire","name":"MROD","street":"3 Place d'Haubersart","location":"Bâtiment Innovare","postCode":"59500","city":"DOUAI","phone":"03 59 61 18 30","website":"www.mrod.fr","numbers":40,"description":"Avec une expertise accrue dans différents domaines de l'industrie et des nouvelles technologies, la société se présente aujourd'hui comme un acteur de premier plan en R&D, conception, industrialisation et production.","type":"Entreprise","latitude":50.36789,"longitude":3.081785},{"sector":"Aéronautique, Automobile, Ferroviaire","name":"OTTEO","street":"121 rue Chanzy","postCode":"59260","city":"LILLE -HELLEMMES","phone":"03 62 27 50 00","website":"www.otteo.fr","numbers":96,"description":"OTTEO Consulting propose des prestations intellectuelles en conseil et en ingénierie.","type":"Entreprise","latitude":50.624883,"longitude":3.098846},{"sector":"Aéronautique, Automobile, Ferroviaire","name":"SOPAVAL","street":"Rue Antoine Laurent de Lavoisier","location":"ZAE Les Dix Muids","postCode":"59770","city":"MARLY","phone":"03 27 21 59 80","website":"www.sopemea.fr","numbers":9,"description":"Sopemea (dont Sopaval est une filiale) est un ensemble de laboratoires spécialisés\r\ndans les essais en environnement. Sopaval propose à ses clients une gamme complète de services\r\nd’essais pour tester tout type de matériels et d’équipements dans les domaines\r\nmécaniques, vibratoires, climatiques, électriques, hydrauliques et de la comptabilité\r\nélectromagnétique.","type":"Entreprise","latitude":50.343821,"longitude":3.56485},{"sector":"Aéronautique, Automobile, Ferroviaire","name":"VALUTEC","street":"Le Mont Houy","location":"Bâtiment C3T","postCode":59300,"city":"VALENCIENNES","phone":"03 27 51 10 71","website":"www.valutec.fr","numbers":20,"description":"Le rôle de Valutec : ccompagner les industries de l’automobile, du ferroviaire, de la défense, du spatial et du naval dans leurs activités de Recherche et Développement en assurant des campagnes d’essais de validation (Acoustique, Aéro-acoustique, Aéraulique, Choc, Climatique, Dynamique rapide, Ensoleillement, Fatigue, Fiabilité, Freinage, Vibratoire) et des simulations numériques....)","type":"Entreprise","latitude":50.329515,"longitude":3.51103},{"sector":"Automobile","name":"2IVAL ","street":"89 rue George Stephenson ","location":"Bâtiment Innovespace, Technopôle Transalley ","postCode":59300,"city":"FAMARS","phone":"03 27 45 25 29 ","website":"www.2ival.com ","description":"2iVAL est spécialisé dans l'intégration industrielle automobile. L'équipe est formée de techniciens justifiant de plusieurs années sur des chantiers (Renault, Airbus, Dacia). Ils travaillent avec des constructeurs, des intégrateurs automobiles, des industries générales et dans l'aéronautique.","type":"Entreprise","latitude":50.314606,"longitude":3.518807},{"sector":"Automobile, Ferroviaire","name":"ACTIV'ENGENEERING","street":"180 rue Joseph-Louis Lagrange","location":"Technopôle Transalley","postCode":59300,"city":"FAMARS","phone":"09 72 59 99 24 ","website":"www.activ-eng.com ","numbers":10,"description":"Activ’Engineering est une société de conseil spécialisée dans le domaine de l’ingénierie électrotechnique et automatique industrielle de plus de 20 ans d’expérience. Son expertise englobe l’étude, les plans, la fabrication et le suivi de projets d’ingénierie destinés à l’industrie.","type":"Entreprise","latitude":50.319464,"longitude":3.509921},{"sector":"Aéronautique, Automobile, Ferroviaire","name":"ADHOC EXPERTS","street":"251 rue Joseph-Louis Lagrange ","location":"Technopôle Transalley","postCode":59300,"city":"FAMARS","phone":"03 27 36 39 00 ","website":"www.adhoc-experts.com","description":"Société de conseil et d'expertise en transport et marchandises dans les domaines de transports terrestres (routier, ferroviaire, et fluvial), maritimes et ariens.","type":"Entreprise","latitude":50.319455,"longitude":3.512023},{"sector":"Ferroviaire","name":"ANDIMAN ","street":"251 rue Joseph-Louis Lagrange ","location":"Technopôle Transalley","postCode":59300,"city":"FAMARS","phone":"03 27 29 42 93 ","website":"www.andiman.fr ","description":"Andiman & Co est un acteur de référence dans le secteur ferroviaire qui fournit et fabrique des pièces de maintenance : mesures de profils de roue, de rail, essuie-glaces, pièces mécaniques et câblage électrique pour train, tramway et métro","type":"Entreprise","latitude":50.319455,"longitude":3.512023},{"sector":"Automobile, Ferroviaire","name":"B2C ENGINEERING ","street":"251 rue Joseph-Louis Lagrange ","location":"Technopôle Transalley","postCode":59300,"city":"FAMARS","phone":"0032 474 23 49 80 ","website":"www.b2c-engineering.com ","description":"Automation, informatique industrielle, cyber sécurité, loT, implantation MES et comptabilité énergétique","type":"Entreprise","latitude":50.319455,"longitude":3.512023},{"sector":"Automobile, Ferroviaire","name":"BESTTIC","street":"251 rue Joseph-Louis Lagrange ","location":"Technopôle Transalley","postCode":59300,"city":"FAMARS","phone":"03 27 46 17 81 ","website":"www.besttic.fr","description":"Société d'ingénierie et de R&D spécialisée dans l'efficacité énergétique et l'automatisation des systèmes dans le tertiaire et transports ferroviaire","type":"Entreprise","latitude":50.319455,"longitude":3.512023},{"sector":"Automobile","name":"BILSING","street":"89 rue George Stephenson ","location":"Bâtiment Innovespace, Technopôle Transalley","postCode":59300,"city":"FAMARS","phone":"03 27 34 60 44 ","website":"www.bilsing-automation.com","description":"Fournisseur leader de solutions d'outillage industriel, spécialisé dans les outillages automatisés et les systèmes de manutention","type":"Entreprise","latitude":50.314606,"longitude":3.518807},{"sector":"Aéronautique, Automobile, Ferroviaire","name":"CAELI","street":"89 rue George Stephenson ","location":"Bâtiment Innovespace, Technopôle Transalley","postCode":59300,"city":"FAMARS","phone":"03 27 24 92 80 ","website":"www.caeli-france.com","description":"Spécialiste air comprimé-azote-vide-air respirable. ","type":"Entreprise","latitude":50.314606,"longitude":3.518807},{"sector":"Aéronautique, Automobile, Ferroviaire","name":"CEFEND","street":"251 rue Joseph-Louis Lagrange ","location":"Technopôle Transalley","postCode":59300,"city":"FAMARS","phone":"03 74 01 05 64","website":"www.cefend.fr","description":"Conseil, expertise, formation en contrôle non destructif ","type":"Entreprise","latitude":50.319455,"longitude":3.512023},{"sector":"Aéronautique, Automobile, Ferroviaire","name":"CIMES","street":"180 rue Joseph-Louis Lagrange","location":"Technopôle Transalley","postCode":59300,"city":"FAMARS","phone":"03 27 41 62 71","website":"www.cimesfrance.com","description":"Bureau d'étude d'ingénierie spécialisé en simulation numérique appliquée à l'évaluation du comportement mécanique des structures et à la caractérisation des écoulements de fluides. ","type":"Entreprise","latitude":50.319464,"longitude":3.509921},{"sector":"Automobile","name":"CLIEMA","street":"89 rue George Stephenson ","location":"Bâtiment Innovespace, Technopôle Transalley","postCode":59300,"city":"FAMARS","phone":"03 20 34 91 82 ","website":"www.cliema.com ","description":"Pôle d'expertise en prévention des risques liés à la mobilité. Mise en place de plans de prévention ","MÉTIERS":"sécurité\r\nprévention","type":"Entreprise","latitude":50.314606,"longitude":3.518807},{"sector":"Automobile, Ferroviaire","name":"EFM STEEL ","street":"251 rue Joseph-Louis Lagrange ","location":"Technopôle Transalley","postCode":59300,"city":"FAMARS","phone":"03 74 01 07 86 ","website":"www.efmsteel.com ","description":"Ingénierie clé en main des installations industrielles de manutention de produits en vrac ","MÉTIERS":"ingénierie","type":"Entreprise","latitude":50.319455,"longitude":3.512023},{"sector":"Automobile","name":"ERODE ","street":"251 rue Joseph-Louis Lagrange ","location":"Technopôle Transalley","postCode":59300,"city":"FAMARS","phone":"06 38 72 49 21 ","website":"www.erode-moto.com","description":"Erode conçoit pour les motards des sacs à dos qui leurs apportent en plus la protection dont ils ont besoin pour rouler sereinement, en toute liberté. ","type":"Entreprise","latitude":50.319455,"longitude":3.512023},{"sector":"Aéronautique, Automobile, Ferroviaire","name":"EXPLEO","street":"180 rue Joseph-Louis Lagrange","location":"Technopôle Transalley","postCode":59300,"city":"FAMARS","phone":"03 27 20 08 10 ","website":"www.expleogroup.com","description":"Offre de services intégrés d'ingénierie, qualité et conseil stratégique pour la transformation digitale ","type":"Entreprise","latitude":50.319464,"longitude":3.509921},{"sector":"Aéronautique, Automobile, Ferroviaire","name":"FERCHAU","street":"251 rue Joseph-Louis Lagrange ","location":"Technopôle Transalley","postCode":59300,"city":"FAMARS","phone":"03 74 01 08 10 ","website":"www.ferchau.com ","description":"Société d'ingénierie experte notamment dans lles domaines du ferroviaire, de l'automobile, et de l'aéronautique. ","type":"Entreprise","latitude":50.319455,"longitude":3.512023},{"sector":"Aéronautique, Automobile, Ferroviaire","name":"GDTECH","street":"180 rue Joseph-Louis Lagrange","location":"Technopôle Transalley","postCode":59300,"city":"FAMARS","phone":"09 72 66 42 38 ","website":"www.gdtech.fr ","description":"Solutions en ingénierie des systèmes et équipements ","type":"Entreprise","latitude":50.319464,"longitude":3.509921},{"sector":"Aéronautique, Automobile, Ferroviaire","name":"GREENING","street":"251 rue Joseph-Louis Lagrange","location":"Technopôle Transalley","postCode":59300,"city":"FAMARS","phone":"06 59 84 59 29 ","description":"Développe pour l'industrie des installations de process industriel s'inscrivant dans une démarche plus écologique et au service de l'environnnement, en prenant en considération la problématique des rejets dans l'atmosphère ou encore de l'empoussièrement des zones de travail, et en accentuant la recherche de fiabilisation des machines de manière mécanique","type":"Entreprise","latitude":50.319455,"longitude":3.512023},{"sector":"Automobile","name":"GWO","street":"251 rue Joseph-Louis Lagrange ","location":"Technopôle Transalley","postCode":59300,"city":"FAMARS","phone":"06 12 42 41 05 ","website":"www.gwo.fr","description":"Organisation d'événements publics et privés, séminaires, incentives, opérations de RP, formations, apporteurs d'afafires et vente de tous produis dérivés. ","type":"Entreprise","latitude":50.319455,"longitude":3.512023},{"sector":"Automobile","name":"HYBSTER","street":"251 rue Joseph-Louis Lagrange ","location":"Technopôle Transalley","postCode":59300,"city":"FAMARS","phone":"09 72 55 53 33","website":"www.hybster.com","description":"Entreprisede fabrication de pièces de haute technicité en polymèresnet composites (combinaison de productions additives et soustractives) ","type":"Entreprise","latitude":50.319455,"longitude":3.512023},{"sector":"Automobile, Ferroviaire","name":"ICARE","street":"89 rue George Stephenson ","location":"Bâtiment Innovespace, Technopôle Transalley","postCode":59300,"city":"FAMARS","phone":"0032 65 457 214 ","website":"www.icareweb.com","description":"Maintenance prédictive et fiabilité industrielle ","MÉTIERS":"Maintenance","type":"Entreprise","latitude":50.314606,"longitude":3.518807},{"sector":"Aéronautique, Automobile, Ferroviaire","name":"STTRATEN ","street":"251 rue Joseph-Louis Lagrange","location":"Technopôle Transalley","postCode":59300,"city":"FAMARS","phone":"03 74 01 05 54 ","website":"www.sttraten.com ","description":"Prestation de services ingénierie ","MÉTIERS":"ingénierie","type":"Entreprise","latitude":50.319455,"longitude":3.512023},{"sector":"Aéronautique, Automobile, Ferroviaire","name":"TECHNIFRANCE","street":"180 rue Joseph-Louis Lagrange","location":"Technopôle Transalley","postCode":59300,"city":"FAMARS","phone":"03 24 42 25 20 ","website":"www.technifrance.com","description":"Bureau d'étude d'ingénirie, de calculs, d'assistance technique travaillant pour les secteurs Transports, Industrie et Energie","MÉTIERS":"ingénierie","type":"Entreprise","latitude":50.319464,"longitude":3.509921},{"sector":"Aéronautique, Automobile, Ferroviaire","name":"INTEGRAL ","street":"180 rue Joseph-Louis Lagrange","location":"Technopôle Transalley","postCode":59300,"city":"FAMARS","website":"www.integral-group.eu","description":"L'intégrateur Equipementier, groupement d'entreprises propose une offre globale composée de savoir-faire intégrés. ","type":"Entreprise","latitude":50.319464,"longitude":3.509921},{"sector":"Aéronautique, Automobile, Ferroviaire","name":"MECASEM ","street":"89 rue George Stephenson ","location":"Bâtiment Innovespace, Technopôle Transalley ","postCode":59300,"city":"FAMARS","phone":"03 27 28 89 50","website":"www.mecasem.com ","description":"Le Laboratoire industriel Mecasem est expert en essais sur matériaux et métrologie.","MÉTIERS":"métrologie","type":"Entreprise","latitude":50.314606,"longitude":3.518807},{"sector":"Aéronautique, Automobile, Ferroviaire","name":"METIS SOLUTIONS ","street":"180 rue Joseph-Louis Lagrange","location":"Technopôle Transalley","postCode":59300,"city":"FAMARS","phone":"03 27 41 62 71 ","description":"Ingénierie, études techniques ","MÉTIERS":"ingénierie","type":"Entreprise","latitude":50.319464,"longitude":3.509921},{"sector":"Aéronautique, Automobile, Ferroviaire","name":"WEBEN EUROPE ","street":"251 rue Joseph-Louis Lagrange ","location":"Technopôle Transalley","postCode":59300,"city":"FAMARS","phone":"06 42 31 88 99 ","website":"www.weben-smart.com","description":"Propose des solutions clé-en-main automatisées et robotisées pour les industries automobiles, ferroviaires & aéronautiques ","type":"Entreprise","latitude":50.319455,"longitude":3.512023},{"sector":"Aéronautique, Automobile, Ferroviaire","name":"MMSI ","street":"89 rue George Stephenson ","location":"Bâtiment Innovespace, Technopôle Transalley ","postCode":59300,"city":"FAMARS","phone":"03 27 27 60 95 ","description":"Fabrication, montage et maintenance des convoyeurs de tribagages pour les Aéroports de Paris et des accès maintenance (charpentes); mécanique et serrurerie industrielle ","type":"Entreprise","latitude":50.314606,"longitude":3.518807},{"sector":"Automobile","name":"PHOENIX MOBILITY ","street":"251 rue Joseph-Louis Lagrange ","location":"Technopôle Transalley","postCode":59300,"city":"FAMARS","phone":"06 89 99 51 16","website":"www.phoenixmobility.co","description":"Phoenix Mobility a pour activer de convertir des véhicules essence/diesel en véhciules 100% électriques","MÉTIERS":"électricité\r\ndéveloppement durable","type":"Entreprise","latitude":50.319455,"longitude":3.512023},{"sector":"Aéronautique, Automobile, Ferroviaire","name":"RHESUS CONSULTING ","street":"251 rue Joseph-Louis Lagrange","location":"Technopôle Transalley","postCode":59300,"city":"FAMARS","phone":"06 14 65 05 81","website":"www.rhesus-consulting.fr","description":"Société de conseil en ergonomie. Prise en compte des facteurs humains en conception des systèmes de travail, interface Homme-machine et support à la R&D ","MÉTIERS":"ergonomie","type":"Entreprise","latitude":50.319455,"longitude":3.512023},{"sector":"Aéronautique, Automobile, Ferroviaire","name":"SACI ","street":"180 rue Joseph-Louis Lagrange","location":"Technopôle Transalley","postCode":59300,"city":"FAMARS","phone":"03 27 73 96 07","website":"www.saci-industries.com ","description":"Conception, industrialisation, réalisations mécanique ","type":"Entreprise","latitude":50.319464,"longitude":3.509921},{"sector":"Mobilités Douces","name":"AUTONOMAD MOBILITY ","street":"251 rue Joseph-Louis Lagrange ","location":"Technopôle Transalley","postCode":59300,"city":"FAMARS","phone":"09 72 64 35 19","website":"www.autonomad-mobility.com","description":"SAS Autonomad Mobility conçoit des aides techniques à la mobilité pour les personnes à mobilité réduite, fabrique des systèmes de motorisation pour fauteuil roulant et commercialise des dispositifs d'aides électriques à la mobilité à forte valeur ajoutée. ","type":"Entreprise","latitude":50.319455,"longitude":3.512023},{"sector":"Mobilités Douces","name":"URBAN LABS TECHNOLOGIES (ULT) ","street":"251 rue Joseph-Louis Lagrange ","location":"Technopôle Transalley","postCode":59300,"city":"FAMARS","phone":"06 64 80 18 27","website":"www.jericoapp.fr","description":"Conception, développement et exploitation d'applications mobiles et de sites internet dans tous domaines d'activité. ","type":"Entreprise","latitude":50.319455,"longitude":3.512023},{"sector":"Mobilités Douces","name":"WINDMAKER ","street":"251 rue Joseph-Louis Lagrange ","location":"Technopôle Transalley","postCode":59300,"city":"FAMARS","phone":"06 75 31 45 44 ","website":"www.windmaker.co","description":"Etudie le potentiel énergétique d'une zone en abord de voie de transport. Produit de l'énergie verte et local. ","type":"Entreprise","latitude":50.319455,"longitude":3.512023},{"sector":"Mobilités Douces","name":"XSCALIBUR ","street":"251 rue Joseph-Louis Lagrange ","location":"Technopôle Transalley","postCode":59300,"city":"FAMARS","phone":"06 60 20 69 14","website":"www.xscalibur.fr","description":"Etudie un logiciel de gestion de plateforme multi-cloud innovant. ","type":"Entreprise","latitude":50.319455,"longitude":3.512023},{"sector":"Mobilités Douces","name":"ZWISSTEX ","street":"251 rue Joseph-Louis Lagrange ","location":"Technopôle Transalley","postCode":59300,"city":"FAMARS","phone":"03 27 85 42 52 ","website":"www.zwisstex.com","description":"Commercialisation, vente, importation, exportation et distribution de tous artcles composés de divers tissus à maille pour l'industrie automobilie entre autres. ","type":"Entreprise","latitude":50.319455,"longitude":3.512023},{"sector":"Ferroviaire","name":"AIF ","street":"180 rue Joseph-Louis Lagrange","location":"Technopole Transalley","postCode":59300,"city":"FAMARS","phone":"03 27 09 56 10","website":"www.aifonline.eu ","description":"L'AIF (Association des Industries Ferroviaires) Hauts-de-France assure un support concret et opérationnel à la structuratuion de a fillière alliant PME, \"quipementiers et grands donneurs d'ordre. ","type":"Association","latitude":50.319464,"longitude":3.509921},{"sector":"Aéronautique, Automobile, Ferroviaire","name":"ALLIANCE EMPLOI ","street":"180 RUE Joseph-Louis Lagrange","location":"Technopole Transalley","postCode":59300,"city":"FAMARS","phone":"03 59 31 30 50","website":"www.alliance-emploi.org","description":"Ce groupement d'employeurs a une expertise auprès des entreprises dans la mise à dispositions de personnel, l'accompagnement, le conseil RH et la montée en compétences. ","type":"Association","latitude":50.319464,"longitude":3.509921},{"sector":"Automobile","name":"ARIA HAUTS-DE-France","street":"180 rue Joseph-Louis Lagrange","location":"Technopole Transalley","postCode":59300,"city":"FAMARS","phone":"03 66 72 93 82","website":"www.aria-automobile-hdf.fr","description":"L'ARIA (Association Régionale de l'Industrie Automobile) fédère les acteurs de la filière industrielle automobile. Elle porte l'image de la fillière en région et renforce son attractivité. Elle contribue à accroitre la compétitivité des entreprises pat des actions ciblées. Elle acommpagne la fillière industrielle automobile de la région Hauts-de-France, en favorisant son développement, pour la préparer à son avenir. ","type":"Association","latitude":50.319464,"longitude":3.509921},{"sector":"Aéronautique, Automobile, Ferroviaire","name":"ASSOCIATION TECHNOPOLE DU VALENCIENNOIS","street":"180 rue Joseph-Louis Lagrange","location":"Technopole Transalley","postCode":59300,"city":"FAMARS","phone":"03 62 26 02 20","website":"www.transalley.com ","description":"L'association Technopôle du Valenciennois pilote l'animation, le développement et la promotion de Tansalley. Elle propose aux entreproses des services d'accompagnement (R&D, RH, implantation) et de mose en relation avec les acteurs du technopôle. ","type":"Association","latitude":50.319464,"longitude":3.509921},{"sector":"Aéronautique, Automobile, Ferroviaire","name":"CAMPUS DES METIERS ET DES QUALIFICATIONS FERROVIAIRES, INDUSTRIE AUTOMOBILE ET ECOMOBILITE ","street":"180 rue Joseph-Louis Lagrange","location":"Technopole Transalley","postCode":59300,"city":"FAMARS","description":"Le Campus Ferroviaire Industries Automobile et Eco-Mobilité (FIAEM) répond aux besoins de nouveaux métiers et compétences. Il rassemble les acteurs de la formation professionnelle autour de ces fillière économiques. ","type":"Association","latitude":50.319464,"longitude":3.509921},{"sector":"Aéronautique, Automobile, Ferroviaire","name":"I-TRANS","street":"180 rue Joseph-Louis Lagrange","location":"Technopole Transalley","postCode":59300,"city":"FAMARS","phone":"03 27 19 00 10 ","website":"www.i-trans.org ","description":"Le pôle de compétitivité i-Trans est spécialisé dans l'innovation collaborative pour les transports terrestres durables et de la logistique. Il monte et labellise des projets de R&D&I collaboratifs pour les entreprises et la boratoires qui, grâce à ce label de qualité, peuvent bénéficier de cofinancements publics ou privés. ","type":"Association","latitude":50.319464,"longitude":3.509921},{"sector":"Aéronautique, Automobile, Ferroviaire","name":"PLATEFORME EMPLOI (APEC/POLE EMPLOI)","street":"180 rue Joseph-Louis Lagrange","location":"Technopole Transalley","postCode":59300,"city":"FAMARS","website":"www.plateforme-emploi@transalley.com ","description":"La plateforme emploi est un outil au service des entreprises de mobilité. Ce guichet unique travaille en réseau (APEC, pôle emploi) pour offrir des services en circuit court : emploi, formation, attractivité des métiers et fillières. ","type":"Association","latitude":50.319464,"longitude":3.509921},{"sector":"Aéronautique, Automobile, Ferroviaire","name":"SPL TRANSALLEY ","street":"180 rue Joseph-Louis Lagrange","location":"Technopole Transalley","postCode":59300,"city":"FAMARS","phone":"03 62 26 02 20 ","website":"www.transalley.com ","description":"La Société Publique Locale Transalley propose des services d'accompagnement aux entreprises et gère le centre d'affaires (salle de réunion, espace de coworking, etc.) Elle suit l'aménagement et l'immobilier du technopôle. ","type":"Association","latitude":50.319464,"longitude":3.509921},{"sector":"Automobile, Ferroviaire, Aéronautique","shortName":"LAMIH","name":"Laboratoire d’Automatique, de Mécanique et d’Informatique Industrielles et Humaines","labCode":"UMR CNRS 8201","street":"128 Rue Joseph-Louis Lagrange","location":"Université Polytechnique Hauts-de-France Le Mont Houy","postCode":59300,"city":"Famars","phone":"03 27 51 19 60","website":"https://www.uphf.fr/LAMIH/fr","numbers":142,"description":"Le LAMIH couvre toute la chaîne Transport et Sécurité, Mobilité et Handicap, des aspects de recherche théorique et méthodologique jusqu’à l’innovation incluant la création de start-up et en passant par des recherches s’appuyant des groupes industriels majeurs mais aussi sur des PME. Il s’appuie de plus sur de très nombreuses plateformes expérimentales parfois uniques en France qui sont un atout indispensable pour mener des activités scientifiques de qualité.","logo":"lamih-2015-308px.png","type":"Labo","latitude":50.319455,"longitude":3.512023},{"sector":"Automobile, Ferroviaire, Aéronautique","shortName":"LGI2A","name":"Laboratoire de Génie Informatique et d’Automatique de l’Artois","labCode":"EA 3926","street":"Technoparc Futura","location":"Faculté des Sciences Appliquées","postCode":62400,"city":"BÉTHUNE","phone":"03 21 63 71 17","website":"https://www.lgi2a.univ-artois.fr/spip/fr","numbers":20,"description":"Ce laboratoire créé en 2000, regroupe actuellement une quinzaine d’enseignants-chercheurs au sein d’une même équipe « Aide à la Décision ». Les domaines d'applications phares de notre laboratoire concernent la Logistique et la Mobilité durables. Dans ce domaine, nous cherchons grâce aux nouvelles avancées des technologies de l’information et de la communication à améliorer les déplacements des personnes","logo":"lgi2a_logo.jpeg","type":"Labo","latitude":50.513812,"longitude":2.658348},{"sector":"Ferroviaire","name":"LaMcube","labCode":"UMR CNRS 9013","street":"Avenue Paul Langevin","location":"Cité Scientifique","postCode":59655,"city":"Villeneuve d'Ascq","phone":"03 20 33 71 74","website":"http://lamcube.univ-lille.fr/fr/presentation","numbers":49,"description":"L’ambition du LaMcube est de créer un continuum allant de l’élaboration des matériaux à la description des systèmes sous sollicitations, en passant par la prise en compte de l’évolution des matériaux et des structures avec ces sollicitations.","logo":"lamcublogo.png","type":"Labo","latitude":50.606301,"longitude":3.135407},{"sector":"Automobile, Ferroviaire, ","shortName":"FRTTM","name":"Fédération de Recherche Transports Terrestres et Mobilité ","labCode":"FR CNRS 3733","street":"128 Rue Joseph-Louis Lagrange","location":"Université Polytechnique Hauts-de-France Le Mont Houy","postCode":59300,"city":"Famars","phone":"03 27 51 13 02","website":"www.frttm.fr","description":"La Fédération de Recherche Transports Terrestres & Mobilité, soutenue par le CNRS, l'Université Polythechnique Hauts-de-France, l'Universitéde Lille et Centrale Lille, est issue d'une recherche collaborative d'excellence menée de longue date en région par les laboratoires LAMIH, CRISTAL, IEMN, LMFL, LaMCUBE. Elle constitue une brique importante dans le secteur des transports et de la mobilité, dans un contexte socio-économique qui se doit d'être toujours plus compétitif. ","type":"Labo","latitude":50.319455,"longitude":3.512023},{"sector":"Automobile, Ferroviaire, Aéronautique","shortName":"IEMN","name":"Institut Electronique de Microélectronique et de Nanotechnologie","labCode":"UMR CNRS 8520","street":"Campus Mont Houy","location":"Université Polytechnique Hauts-de-France Le Mont Houy","postCode":59313,"city":"Valenciennes","phone":"03 27 51 12 39","website":"www.iemn.fr ","description":"L'Institut d'Electronique, de Microélectronique et de Nanotechnologie est un centre de recherche en micro et nanotechnologies implanté sur plusieurs sites : le laboratoire central de l'IEMN à Villeneuve d'Ascq et trois antennes dont une à l'Université Polytechnique Hauts-de-France","type":"Labo","latitude":50.329515,"longitude":3.51103},{"sector":"Ferroviaire","shortName":"IRT RAILENIUM","name":"Institut de Recherche Technologique Railenium ","street":"180 rue Joseph-Louis Lagrange","location":"Technopôle Transalley  ","postCode":59300,"city":"Famars","phone":"03 66 72 26 93","website":"www.railenium.eu ","description":"L'institut de Recherche Technologique Railenium porte l'ambition globale de mettre l'innovation et les fonctionnements collaboratifs au service de la stratégie de la fillière ferroviaire. ","type":"Labo","latitude":50.319464,"longitude":3.509921},{"sector":"Autre","shortName":"PRIMOH","name":"Pôle de Recherche et d'Innovation en Mobilité et Handicap","street":"Campus Mont Houy","location":"Bâtiment Malvache ","postCode":59313,"city":"Valenciennes","phone":"03 27 51 11 55","website":"www.primoh.fr","description":"Le pôle de Recherche et d'Innovation en Mobilité et Handicap de la région Hats-de-France s'appuie sur uen communauté de chercheurs. Il anime un écosystème autour du handicap et de la mobilité, contribue au développement de partenariats de recherche (projets collaboratifs, participatifs...), promeut des projets d'innovation, apporte une expertise; et contribue au dévelopement d'une société inclusive avec une démarche de living lab ","type":"Labo","latitude":50.329515,"longitude":3.51103},{"sector":"Ferroviaire","shortName":"SWIT LAB ","name":"Science for Wheelset Innovative Technology ","street":"Rue Joseph-Louis Lagrange ","postCode":59300,"city":"Famars","description":"SWIT(Science for Wheelset Innovative Technology) lab est un laboratoire commun Université Polytechnique Hauts-de-France/MG Valdunes/Université de Lille/ CNRS qui développe des essieux montés ferroviaires innovants par la modélisation du continuum. ","type":"Labo","latitude":50.319455,"longitude":3.512023},{"sector":"Autre","shortName":"VALUTEC","street":"Bâtiment C3T","location":"Université Polytechnique Hauts-de-France Le Mont Houy","postCode":59313,"city":"Valenciennes","phone":"03 27 51 10 81 ","website":"www.valutec.fr","description":"Valutec se positionne comme centre d'innovation et d'essais technologiques et accompagne les projets de recherche, développement & innovation ","type":"Labo","latitude":50.263529,"longitude":3.334023},{"sector":"Automobile, Ferroviaire, Aéronautique","shortName":"EMD","name":"Ecole des Mines de Douai","street":"941 rue Charles Bourseul","postCode":59500,"city":"DOUAI","phone":"03 27 71 22 22","website":"www.mines-douai.fr","formationLevel":"o","initiale":"o","continue":"x","alternance":"o","apprentissage":"o","vae":"o","description":"Former des ingénieurs généralistes, managers, opérationnels dans un\r\ndomaine spécifique (au travers de majeures et d’options), et disposant d’une double compétence (au travers de filières préparant aux fonctions de l’entreprise : R&D, logistique, Achats,…).","logo":"IMT_Lille_Douai_Logo_WEB.png","type":"Formation","latitude":50.374027,"longitude":3.067359},{"sector":"Automobile, Ferroviaire, Aéronautique","shortName":"Polytech'Lille","name":"Polytech'Lille","street":"Avenue Paul Langevin","postCode":59655,"city":"VILLENEUVE D’ASCQ","phone":"03 28 76 73 00","website":"www.polytech-lille.fr","formationLevel":"o","initiale":"o","continue":"x","alternance":"o","apprentissage":"o","vae":"o","description":"Former des « ingénieurs architectes » en conception de systèmes\r\nmécaniques. Les secteurs d’activités concernés sont principalement ceux du transport et de l’énergie.","logo":"Logo_Reseau_Polytech.svg.png","type":"Formation","latitude":50.606301,"longitude":3.135407},{"sector":"Ferroviaire","shortName":"CIFFCO","name":"CENTRE INTERNATIONAL DE FORMATION FERROVIAIRE DE LA CÔTE D'OPALE","street":"1 BD DE L EUROPE","postCode":62231,"city":"COQUELLES","website":"https://www.ciffco.com/","formationLevel":"o","initiale":"o","continue":"x","alternance":"o","apprentissage":"o","vae":"x","description":"CIFFCO forme les nouvelles recrues de toute entreprise ferroviaire\r\ntravaillant sur réseau ferré national ou réseau privé.","logo":"ciffco.jpg","type":"Formation","latitude":50.934099,"longitude":1.808739},{"sector":"Aéronautique, Automobile, Ferroviaire","shortName":"ICAM ","name":"INSTITUT CATHOLIQUE D’ARTS ET MÉTIERS","street":"6 rue Auber","postCode":59000,"city":"LILLE","phone":"03 20 22 61 61","website":"www.icam.fr","description":"L'Icam forme des ingénieurs généralistes en 5 ans après le bac des ingénieurs généralistes et polyvalents.\r\nL’Icam propose également une offre diversifiée de formations. Soucieux de répondre aux besoins de compétences de l’industrie et aux souhaits d’évolution des personnes, l’Icam propose de la formation professionnelle.","type":"Formation","latitude":50.603164,"longitude":3.054567},{"sector":"Automobile","shortName":"ENSAM -ENSEIGNEMENT","street":"8 Boulevard Louis XIV ","postCode":"59800","city":"LILLE","phone":"03 20 62 22 10 ","website":"www.ensam.eu","type":"Formation","latitude":50.622758,"longitude":3.093319},{"sector":"Automobile","name":"LYCEE DES METIERS PAUL LANGEVIN","street":"rue Paul Langevin","postCode":"59119","city":"WAZIERS","phone":"03 27 94 30 70 ","website":"https://www.langevin-la-seyne.fr","type":"Formation","latitude":50.387183,"longitude":3.104311},{"sector":"Automobile","name":"LYCEE PROFESSIONNEL SALVADOR ALLENDE","street":"396 rue de l'Université","postCode":"62400","city":"BETHUNE","phone":"03 21 68 77 11 ","website":"https://salvador-allende-bethune.enthdf.fr","type":"Formation","latitude":50.522458,"longitude":2.651079},{"sector":"Automobile","name":"IUT DE BETHUNE","street":"1230 rue de l'Université ","postCode":"62408","city":"BETHUNE","phone":"03 21 63 23 00 ","website":"http://iut-bethune.univ-artois.fr","type":"Formation","latitude":50.518452,"longitude":2.657788},{"sector":"Automobile","shortName":"HEI","street":"13 rue de TOUL ","postCode":59000,"city":"LILLE","phone":"03 28 38 48 58 ","website":"www.hei.fr","formationLevel":"ingénieur","initiale":"x","continue":"x","alternance":"o","apprentissage":"x","vae":"o","description":"HEI est une école tournée vers l’avenir qui forme des ingénieurs généralistes. L’école propose une formation adaptée aux besoins des entreprises et à un monde qui ne connait plus de frontières. Retrouvez toutes les informations sur l'école et sa formation.","type":"Formation","latitude":50.642471,"longitude":3.013719},{"sector":"Automobile, Ferroviaire, Aéronautique","name":"AFPI Alternance","street":"89 rue Peclet","postCode":59300,"city":"VALENCIENNES","phone":"03 27 45 24 15","website":"https://www.afpi-acmformation.com/nos-centres/centre-de-valenciennes/","formationLevel":"Bac Pro, BTS","initiale":"x","continue":"o","alternance":"o","apprentissage":"o","vae":"o","description":"Maintenance des Equipements Industriels\r\nPilote de Ligne de Production\r\nTechnicien en Chaudronnerie Industrielle\r\nTechnicien d'Usinage\r\nConception des Processus de Réalisation de Produits\r\nMaintenance des Systèmes option Systèmes de Production","type":"Formation","latitude":50.372223,"longitude":3.517179}]